X,Y,IO_ID,Address,OccupantName,StructureName,InspectionType_Full,LatestInspDate,InspWithinLastYear,address_id,lon,lat,ObjectId,propusetype,propusetypedescription,zip
-83.224268,42.443858,176320,18429 West Eight Mile,MODERN WORLD COATINGS,Modern World Coatings,ANNUAL Mercantile Occupancy,2023/08/19 02:16:29+00,Yes,101314,-83.224268,42.443858,1,500," Mercantile, Business - Other",48219
-83.136839,42.330883,176272,7625 Michigan,Alaskan Bar,Alaskan Bar,ANNUAL Assembly Occupancy,2023/08/18 19:39:34+00,Yes,541220,-83.136839,42.330883,2,100, Assembly - Other,48210
-83.009584,42.349649,176258,1111 Bellevue,LETTS INDUSTRIES,,ANNUAL Business Occupancy,2023/08/18 17:55:45+00,Yes,328988,-83.009584,42.349649,3,700," Manufacturing, Processing",48207
-83.22198,42.44392,176268,18225 Eight Mile,Alter Ego Beauty Studios,,ANNUAL Business Occupancy,2023/08/18 17:14:02+00,Yes,352449,-83.22198,42.44392,4,557," Personal Service, Including Barber & Beauty Shops",48219
-83.138983,42.383326,176373,12800 Livernois,Motor City Auto Glass,Motor City Auto Glass,ANNUAL Business Occupancy,2023/08/18 17:13:24+00,Yes,77611,-83.138983,42.383326,5,500," Mercantile, Business - Other",48238
-83.222267,42.444035,176318,18245 West Eight Mile,NORTHLAND PARTY STORE,,ANNUAL Mercantile Occupancy,2023/08/18 16:23:43+00,Yes,352455,-83.222267,42.444035,6,500," Mercantile, Business - Other",48219
-83.177906,42.381827,176317,12700 Schaefer Highway,Field of Green LLC,,ANNUAL Assembly Occupancy,2023/08/18 16:03:09+00,Yes,213816,-83.177906,42.381827,7,500," Mercantile, Business - Other",48227
-83.138925,42.380526,176372,12540 Livernois,Jeff's Cleaners,Jeff's Cleaners,ANNUAL Business Occupancy,2023/08/18 15:53:31+00,Yes,83823,-83.138925,42.380526,8,600," Ind., Utility, Defense, Agriculture, Mining - Other",48204
-83.184261,42.363946,176316,9331 Freeland,DYMIX USED AUTO,,ANNUAL Repair Garage,2023/08/18 15:34:49+00,Yes,216251,-83.184261,42.363946,9,579," Motor Vehicle or Boat Sales, Services, Repair",48228
-83.19619,42.351328,176303,8024 Greenfield,VEGAS LIQUOR & WINE SHOPPE,Vegas  liquor,ANNUAL Mercantile Occupancy,2023/08/18 15:30:01+00,Yes,215930,-83.19619,42.351328,10,500," Mercantile, Business - Other",48228
-83.138384,42.371531,176371,10360-10330 Livernois,First Class Auto Service,First Class Auto Service,ANNUAL Repair Garage,2023/08/18 15:04:53+00,Yes,228255,-83.138384,42.371531,11,579," Motor Vehicle or Boat Sales, Services, Repair",48204
-83.220841,42.430248,176325,18212 West Seven Mile Road,KC MasterPeace,K C MasterPeace,ANNUAL Assembly Occupancy,2023/08/18 14:34:59+00,Yes,535763,-83.220841,42.430248,12,UUU, Undetermined,48219
-83.0425,42.447459,176302,6030 East Eight Mile,Cookie's Provisioning Center,"6030 E. 8 MILE, LLC",ANNUAL Business Occupancy,2023/08/18 14:18:52+00,Yes,299724,-83.0425,42.447459,13,500," Mercantile, Business - Other",48234
-83.028918,42.434192,176300,7245 East Seven Mile,High Lyfe Bundles,High Lyfe Bundles,ANNUAL Mercantile Occupancy,2023/08/18 13:00:00+00,Yes,536495,-83.028918,42.434192,14,500," Mercantile, Business - Other",48234
-83.028135,42.433629,176301,7404 East Seven Mile,PICK & SAVE FOOD MARKET,Pick & Save,ANNUAL Mercantile Occupancy,2023/08/18 12:00:00+00,Yes,267838,-83.028135,42.433629,15,500," Mercantile, Business - Other",48234
-83.128405,42.344132,176315,6191 Warren,Light Em UP Cannabis,,ANNUAL Business Occupancy,2023/08/18 11:46:57+00,Yes,547020,-83.128405,42.344132,16,500," Mercantile, Business - Other",48207
-83.139978,42.387679,175636,13611 Livernois,"FIRST CLASS AUTO SALES AND SERVICES, INC",First Class Auto Sales and Service,ANNUAL Business Occupancy,2023/08/18 11:44:37+00,Yes,69646,-83.139978,42.387679,17,579," Motor Vehicle or Boat Sales, Services, Repair",48238
-83.265131,42.442848,173312,22401 West Eight Mile,I LOVE CBD,,ANNUAL Business Occupancy,2023/08/18 11:36:15+00,Yes,353244,-83.265131,42.442848,18,599, Business Office,48219
-83.122408,42.443788,176250,20266 Woodward,De Lido Motel,De Lido Motel,ANNUAL Residential,2023/08/18 11:06:34+00,Yes,50675,-83.122408,42.443788,19,449," Hotel/motel, Commercial",48203
-83.025307,42.448048,175699,7722 East Eight Mile,Holbrook Auto Parts,Holbrook Auto,ANNUAL Mercantile Occupancy,2023/08/18 11:00:00+00,Yes,349953,-83.025307,42.448048,20,500," Mercantile, Business - Other",48234
-83.026161,42.433785,176299,7606 East Seven Mile,Metro PCS,Metro PCS,ANNUAL Business Occupancy,2023/08/18 11:00:00+00,Yes,349905,-83.026161,42.433785,21,500," Mercantile, Business - Other",48234
-82.964569,42.435108,176252,15200 East Seven Mile,AAA Wireless 1 Inc.,15200-62 E Seven Mile ( East Bend Plaza ),ANNUAL Mercantile Occupancy,2023/08/18 10:32:11+00,Yes,351752,-82.964569,42.435108,22,500," Mercantile, Business - Other",48205
-82.964546,42.435105,151357,15208 East Seven Mile,High Maintenance 2 Salon,East Bend Plaza,ANNUAL Business Occupancy,2023/08/18 10:11:51+00,Yes,540758,-82.964546,42.435105,23,500," Mercantile, Business - Other",48205
-83.126869,42.331339,175321,6716 Michigan,Squeeze Station,,ANNUAL Mercantile Occupancy,2023/08/18 10:03:47+00,Yes,349712,-83.126869,42.331339,24,UUU, Undetermined,48210
-82.935984,42.416262,148005,17100 Harper,SUNOCO GAS/SANA MINI MART,Sana Mini Mart,ANNUAL Gas Station,2023/08/18 09:20:10+00,Yes,306804,-82.935984,42.416262,25,571," Service Station, Gas Station",48224
-83.045827,42.329658,176220,511 Woodward,Capitol One Cafe,,ANNUAL Assembly Occupancy,2023/08/17 19:08:38+00,Yes,418053,-83.045827,42.329658,26,500," Mercantile, Business - Other",48226
-83.195305,42.351116,176223,15340 Tireman,Ace Carpet & Flooring,Ace Carpet and Flooring,ANNUAL Mercantile Occupancy,2023/08/17 17:15:55+00,Yes,537983,-83.195305,42.351116,27,500," Mercantile, Business - Other",48228
-83.025528,42.43359,176297,7650 East Seven Mile,Lee's Beauty Supply,Lees Beauty Supply,ANNUAL Mercantile Occupancy,2023/08/17 17:00:00+00,Yes,253509,-83.025528,42.43359,28,500," Mercantile, Business - Other",48234
-83.25286,42.415011,176212,21400 West McNichols,Boost Mobile,,ANNUAL Mercantile Occupancy,2023/08/17 16:56:50+00,Yes,99574,-83.25286,42.415011,29,500," Mercantile, Business - Other",48219
-82.968616,42.410499,176193,9727 Chalmers,T & T Auto Sales,,ANNUAL Storage Occupancy,2023/08/17 16:53:54+00,Yes,350470,-82.968616,42.410499,30,579," Motor Vehicle or Boat Sales, Services, Repair",48205
-83.285768,42.428314,166087,24761 West Seven Mile,7 MILE & GRAND RIVER FUEL SHELL GAS STATION,SHELL GAS STATION,ANNUAL Gas Station,2023/08/17 16:51:01+00,Yes,353338,-83.285768,42.428314,31,571," Service Station, Gas Station",48219
-82.932325,42.359751,176215,14601 Riverside Boulevard,Detroit River Sports,Detroit River Sports,ANNUAL Assembly Occupancy,2023/08/17 16:47:19+00,Yes,351572,-82.932325,42.359751,32,100, Assembly - Other,48213
-83.185319,42.351412,176221,14440 Tireman,SAMS AUTO REPAIR,,ANNUAL Repair Garage,2023/08/17 16:20:56+00,Yes,215932,-83.185319,42.351412,33,579," Motor Vehicle or Boat Sales, Services, Repair",48228
-83.047268,42.366241,176227,1923 Frederick,US Ecology,US Ecology Detroit Facility,ANNUAL 302 Site,2023/08/17 16:00:27+00,Yes,260862,-83.047268,42.366241,34,700," Manufacturing, Processing",48211
-83.003755,42.420371,155408,11601 East McNichols,N & N Auto Repair LLC,N & N Auto Repair Tire Service,ANNUAL Repair Garage,2023/08/17 15:12:18+00,Yes,202118,-83.003755,42.420371,35,579," Motor Vehicle or Boat Sales, Services, Repair",48205
-83.044535,42.334341,176236,1216 Randolph,BUFFALO WILD WINGS,BUFFALO WILD WINGS,ANNUAL Assembly Occupancy,2023/08/17 14:47:13+00,Yes,10951,-83.044535,42.334341,36,100, Assembly - Other,48226
-83.007629,42.392601,169624,9628 Harper,Ross Catering,,ANNUAL Mercantile Occupancy,2023/08/17 14:12:55+00,Yes,350455,-83.007629,42.392601,37,500," Mercantile, Business - Other",48213
-83.006924,42.392607,155309,9650 Harper,HARPER LIQUOR,Harper liquor,ANNUAL Mercantile Occupancy,2023/08/17 14:11:11+00,Yes,282351,-83.006924,42.392607,38,500," Mercantile, Business - Other",48213
-83.024894,42.434214,176234,7701 East seven,7 Van Drugs,7 Van Party Store,ANNUAL Business Occupancy,2023/08/17 14:00:00+00,Yes,253580,-83.024894,42.434214,39,500," Mercantile, Business - Other",48234
-83.224255,42.40163,141364,18616 Fenkell,La kabob,La Kabob,ANNUAL Mercantile Occupancy,2023/08/17 13:54:43+00,Yes,123093,-83.224255,42.40163,40,500," Mercantile, Business - Other",48223
-83.073211,42.373231,176226,105 East Bethune,AT&T/SBC,Madison Building,ANNUAL 302 Site,2023/08/17 13:30:12+00,Yes,340702,-83.073211,42.373231,41,500," Mercantile, Business - Other",48202
-83.074946,42.337478,176235,2950 Rosa Parks Boulevard,TOTAL ARMORED CAR,TOTAL ARMORED CAR,ANNUAL Business Occupancy,2023/08/17 13:03:16+00,Yes,43004,-83.074946,42.337478,42,579," Motor Vehicle or Boat Sales, Services, Repair",48216
,,155650,7705 East Seven Mile,7-VAN LIQUOR,7 Van Party Store,ANNUAL Mercantile Occupancy,2023/08/17 13:00:00+00,Yes,548032,,,43,500," Mercantile, Business - Other",48234
-83.224251,42.401665,141368,18610 Fenkell,Humana,,ANNUAL Business Occupancy,2023/08/17 11:52:59+00,Yes,352579,-83.224251,42.401665,44,599, Business Office,48226
,,176225,4600 Bellevue,AJAX METAL PROCESSING,Ajax Metal Processing,ANNUAL 302 Site,2023/08/17 09:00:46+00,Yes,548018,,,45,600," Ind., Utility, Defense, Agriculture, Mining - Other",48207
-82.964816,42.404235,176183,14350 Harper,OLYMPIA CONEY ISLAND,,ANNUAL Mercantile Occupancy,2023/08/17 02:30:52+00,Yes,247276,-82.964816,42.404235,46,500," Mercantile, Business - Other",48213
-83.024738,42.440136,176231,19741 Van Dyke,Above and Beyond Learning,Above and Beyond Learning,ANNUAL Child Care Center (Day Care),2023/08/17 00:00:00+00,Yes,269454,-83.024738,42.440136,47,254," Day Care, In Commercial Property",48234
-82.968527,42.435481,158518,14901 East Seven Mile,DOCK'S GRILL,Dock's Grill,ANNUAL Mercantile Occupancy,2023/08/16 17:15:14+00,Yes,351666,-82.968527,42.435481,48,161, Restaurant or Cafeteria,48205
-83.226736,42.443789,176230,18645 West Eight Mile,Redford Auto Repair & Collision,No.1 Collision Shop,ANNUAL Repair Garage,2023/08/16 16:14:37+00,Yes,97092,-83.226736,42.443789,49,579," Motor Vehicle or Boat Sales, Services, Repair",48219
-83.23245,42.443672,176155,19215 West Eight Mile,"Caasti Contracting Svcs., Inc","Caasti Svcs., Inc.",ANNUAL Mercantile Occupancy,2023/08/16 16:02:09+00,Yes,352773,-83.23245,42.443672,50,599, Business Office,48219
-83.226265,42.443799,176229,18601 West Eight Mile,M & G AUTO REPAIR,M&G Auto repair,ANNUAL Repair Garage,2023/08/16 15:28:14+00,Yes,97093,-83.226265,42.443799,51,579," Motor Vehicle or Boat Sales, Services, Repair",48219
-83.233626,42.44365,176154,19333 West Eight Mile,COMERICA BANK,Comerica Bank # 111,ANNUAL Business Occupancy,2023/08/16 14:52:50+00,Yes,97047,-83.233626,42.44365,52,500," Mercantile, Business - Other",48219
-83.196312,42.341251,175428,6769 Greenfield,Leela's Beauty supply,Leela's  Beauty Supply,ANNUAL Mercantile Occupancy,2023/08/16 14:45:14+00,Yes,349721,-83.196312,42.341251,53,500," Mercantile, Business - Other",48228
-83.235165,42.4435,176153,19437 West Eight Mile,THE ORIGINAL $3 CAR WASH,The original $3 Car Wash,ANNUAL Business Occupancy,2023/08/16 14:42:58+00,Yes,101316,-83.235165,42.4435,54,500," Mercantile, Business - Other",48219
-83.236695,42.443564,176152,19645 West Eight Mile,Alpha Automotive Repair,,ANNUAL Repair Garage,2023/08/16 14:34:42+00,Yes,352907,-83.236695,42.443564,55,500," Mercantile, Business - Other",48219
-83.237302,42.443557,176135,19701 West Eight Mile,Auto Zone #2275,Auto Zone,ANNUAL Mercantile Occupancy,2023/08/16 14:08:36+00,Yes,347646,-83.237302,42.443557,56,500," Mercantile, Business - Other",48219
-83.096566,42.320158,172989,4440 West Vernor,NA,,ANNUAL Assembly Occupancy,2023/08/15 23:51:01+00,Yes,218542,-83.096566,42.320158,57,100, Assembly - Other,48209
-83.041426,42.335636,175258,573 Monroe,RED SMOKE BBQ,RED SMOKE BBQ,ANNUAL Assembly Occupancy,2023/08/15 23:42:08+00,Yes,16173,-83.041426,42.335636,58,161, Restaurant or Cafeteria,48226
-83.240552,42.443502,176112,20041 West Eight Mile,"THE REMEDY DETROIT, LLC",,ANNUAL Mercantile Occupancy,2023/08/15 17:49:17+00,Yes,352988,-83.240552,42.443502,59,UUU, Undetermined,48219
-83.007994,42.344927,172446,6465 East Jefferson,MISTER POPS DETAIL SHOP,,ANNUAL Business Occupancy,2023/08/15 17:35:18+00,Yes,276395,-83.007994,42.344927,60,UUU, Undetermined,48207
-82.970771,42.446478,176076,15225 Gratiot,DLA MOTORS,BEN MOTOR SALES,ANNUAL Business Occupancy,2023/08/15 17:30:51+00,Yes,351768,-82.970771,42.446478,61,500," Mercantile, Business - Other",48205
-83.250429,42.386273,176123,21306 Schoolcraft,Guilo's Market,,ANNUAL Mercantile Occupancy,2023/08/15 16:30:50+00,Yes,115560,-83.250429,42.386273,62,511, Convenience Store,48223
-83.19074,42.430374,139969,14651 West Seven Mile,Holbrook Auto Parts,Holbrook Auto Parts,ANNUAL Mercantile Occupancy,2023/08/15 16:00:58+00,Yes,65709,-83.19074,42.430374,63,500," Mercantile, Business - Other",48235
-83.026548,42.362832,176044,3579 Gratiot,Faygo Beverages,Faygo Beverages,ANNUAL 302 Site,2023/08/15 15:45:29+00,Yes,270094,-83.026548,42.362832,64,700," Manufacturing, Processing",48207
-83.006684,42.393572,139477,9731 Harper,Farmer John Food Center,,ANNUAL Mercantile Occupancy,2023/08/15 15:42:36+00,Yes,285001,-83.006684,42.393572,65,500," Mercantile, Business - Other",48213
-83.234519,42.371636,170177,19631 Plymouth,VACANT,The New Bentley Lounge,ANNUAL Assembly Occupancy,2023/08/15 15:36:35+00,Yes,352902,-83.234519,42.371636,66,UUU, Undetermined,48228
-83.114182,42.445057,176053,1001 West Eight Mile Road,Oliver / Hatcher Construction,,ANNUAL Storage Occupancy,2023/08/15 15:27:45+00,Yes,545191,-83.114182,42.445057,67,UUU, Undetermined,48203
-83.122026,42.393498,168798,13500 Linwood,MCDONALD'S # 15873,Mc Donald's,ANNUAL Mercantile Occupancy,2023/08/15 15:22:01+00,Yes,347559,-83.122026,42.393498,68,500," Mercantile, Business - Other",48238
-83.123261,42.395261,172754,13736 Linwood,"FARRAH AND FAIDAH CAFE, LLC",,ANNUAL Mercantile Occupancy,2023/08/15 15:17:31+00,Yes,537506,-83.123261,42.395261,69,500," Mercantile, Business - Other",48238
-83.255244,42.382493,176127,12880 Dolson,RIVERS INVESTMENT MGMT GROUP,Dolson arms,ANNUAL Residential,2023/08/15 14:54:57+00,Yes,113988,-83.255244,42.382493,70,UUU, Undetermined,48223
-83.006349,42.39366,155040,9735 Harper,EBONI BEAUTY SUPPLY,,ANNUAL Mercantile Occupancy,2023/08/15 14:26:00+00,Yes,350473,-83.006349,42.39366,71,500," Mercantile, Business - Other",48213
-83.23993,42.443519,176092,20001 West Eight Mile,Nicky D's Coney Island,Nicky D's Coney Island,ANNUAL Business Occupancy,2023/08/15 14:25:04+00,Yes,97025,-83.23993,42.443519,72,500," Mercantile, Business - Other",48219
-83.241252,42.443481,176091,20129 West Eight Mile,Tony Rone's Barber shop,,ANNUAL Business Occupancy,2023/08/15 14:22:39+00,Yes,101319,-83.241252,42.443481,73,500," Mercantile, Business - Other",48219
-83.241005,42.443489,176090,20115 West Eight Mile,Mouna's  Hair Braiding,,ANNUAL Business Occupancy,2023/08/15 14:19:44+00,Yes,353006,-83.241005,42.443489,74,UUU, Undetermined,48219
-83.241394,42.443365,176089,20141 West Eight Mile,Auto Outlet,,ANNUAL Business Occupancy,2023/08/15 14:16:13+00,Yes,101318,-83.241394,42.443365,75,579," Motor Vehicle or Boat Sales, Services, Repair",48219
-83.240978,42.443486,176088,20101 West Eight Mile,PLAN B WELLNESS CENTRE,Plan B Wellness Centre,ANNUAL Mercantile Occupancy,2023/08/15 14:13:22+00,Yes,97019,-83.240978,42.443486,76,500," Mercantile, Business - Other",48219
-83.008171,42.389034,176106,9157 Gratiot,THE RIGHT CHOICE BANQUET HALL,The Right Choice Banquet Hall,ANNUAL Assembly Occupancy,2023/08/15 14:00:00+00,Yes,350367,-83.008171,42.389034,77,100, Assembly - Other,48213
-83.242112,42.443379,176111,20201 West Eight Mile,Redford Auto Repair,,ANNUAL Repair Garage,2023/08/15 13:37:56+00,Yes,96987,-83.242112,42.443379,78,579," Motor Vehicle or Boat Sales, Services, Repair",48219
-83.243923,42.443293,176110,20335 West Eight Mile,Redford  Car Care,,ANNUAL Repair Garage,2023/08/15 13:33:12+00,Yes,101320,-83.243923,42.443293,79,579," Motor Vehicle or Boat Sales, Services, Repair",48219
-83.243553,42.443438,176109,20325 West Eight Mile,TUBBY'S  #121,,ANNUAL Business Occupancy,2023/08/15 13:29:24+00,Yes,97007,-83.243553,42.443438,80,161, Restaurant or Cafeteria,48219
-82.936539,42.403255,176043,16450 East Warren,WINE BASKET,Wine Basket,ANNUAL Mercantile Occupancy,2023/08/15 13:23:51+00,Yes,352085,-82.936539,42.403255,81,500," Mercantile, Business - Other",48224
-83.24453,42.443372,176105,20401 West Eight Mile,City Lube Oil Change,,ANNUAL Repair Garage,2023/08/15 13:09:29+00,Yes,96982,-83.24453,42.443372,82,579," Motor Vehicle or Boat Sales, Services, Repair",48219
-83.244883,42.443299,176104,20451 West Eight Mile,CENTRAL MARKET,,ANNUAL Mercantile Occupancy,2023/08/15 13:02:12+00,Yes,347647,-83.244883,42.443299,83,500," Mercantile, Business - Other",48219
-82.923058,42.394741,176045,17045 Mack,MICHIGAN BELL TELEPHONE CO,,ANNUAL 302 Site,2023/08/15 13:00:58+00,Yes,352220,-82.923058,42.394741,84,600," Ind., Utility, Defense, Agriculture, Mining - Other",48224
-82.964494,42.415942,176107,11002 Hayes,HAYES LIQUOR BASKET,,ANNUAL Mercantile Occupancy,2023/08/15 13:00:00+00,Yes,252135,-82.964494,42.415942,85,500," Mercantile, Business - Other",48213
-83.245785,42.44327,176103,20601 West Eight Mile,T-J'S CONEY ISLAND,,ANNUAL Business Occupancy,2023/08/15 12:53:36+00,Yes,96957,-83.245785,42.44327,86,500," Mercantile, Business - Other",48219
-83.247369,42.382165,176119,12855 Burt,HM WHITE CONTRACTING,"White H.M., Inc",ANNUAL Business Occupancy,2023/08/15 12:52:24+00,Yes,113802,-83.247369,42.382165,87,700," Manufacturing, Processing",48223
-83.248647,42.443205,176102,20811 West Eight Mile,"Security Consulting Services, Inc.",Save A Lot,ANNUAL Mercantile Occupancy,2023/08/15 12:37:32+00,Yes,257326,-83.248647,42.443205,88,500," Mercantile, Business - Other",48219
-83.225767,42.443818,176087,18539 West Eight Mile,A & H APPLIANCES,A&M Appliance & Mattress,ANNUAL Mercantile Occupancy,2023/08/15 12:29:40+00,Yes,101315,-83.225767,42.443818,89,500," Mercantile, Business - Other",48219
-83.266503,42.442772,176101,22575 West Eight Mile,1ST BAPTIST WORLD CHANGERS INTERNATIONAL ADMIN BUILDING,,ANNUAL Assembly Occupancy,2023/08/15 12:26:47+00,Yes,105463,-83.266503,42.442772,90,100, Assembly - Other,48219
-83.266503,42.442772,176100,22595 West Eight Mile,1ST BAPTIST WORLD CHANGERS INTERNATIONAL SANCTUARY,,ANNUAL Assembly Occupancy,2023/08/15 12:24:15+00,Yes,105464,-83.266503,42.442772,91,100, Assembly - Other,48219
-83.245682,42.381003,176118,12720 Burt,DURAWELD SECURITY DOORS,,ANNUAL Business Occupancy,2023/08/15 10:51:10+00,Yes,113061,-83.245682,42.381003,92,500," Mercantile, Business - Other",48223
-83.034185,42.332769,176046,1000 East Jefferson,AT&T Detroit Riverfront C.O.,AT&T,ANNUAL 302 Site,2023/08/15 09:00:44+00,Yes,8049,-83.034185,42.332769,93,600," Ind., Utility, Defense, Agriculture, Mining - Other",48226
-83.049408,42.334385,176243,19 Clifford,We Work,WeWork,ANNUAL High Rise,2023/08/15 08:13:51+00,Yes,347682,-83.049408,42.334385,94,500," Mercantile, Business - Other",48201
-82.942752,42.449088,176147,20531 Kelly,RHEMA International Church,,ANNUAL Assembly Occupancy,2023/08/15 01:30:47+00,Yes,104784,-82.942752,42.449088,95,100, Assembly - Other,48225
-82.970915,42.4026,165308,13214 Harper,SUPER SPOT MARKET,,ANNUAL Mercantile Occupancy,2023/08/14 18:05:35+00,Yes,247278,-82.970915,42.4026,96,500," Mercantile, Business - Other",48213
-83.069674,42.366475,176019,42 Piquette,Z'S PLACE II,Z's Place II,ANNUAL Assembly Occupancy,2023/08/14 17:33:48+00,Yes,335835,-83.069674,42.366475,97,160," Eating, Drinking Places - Other",48202
-83.228702,42.415595,176026,19036 McNichols,Collective Coworking LLC,,ANNUAL Assembly Occupancy,2023/08/14 17:23:41+00,Yes,535820,-83.228702,42.415595,98,100, Assembly - Other,48219
,,176025,12660 Burt,Brisbane Mariamola Properties,Safe Transport,ANNUAL Business Occupancy,2023/08/14 16:56:36+00,Yes,,,,99,800, Storage - Other,48223
-83.04909,42.335206,176018,1500 Woodward,Wright and Company,Wright and Kay Building,ANNUAL Assembly Occupancy,2023/08/14 16:35:29+00,Yes,15513,-83.04909,42.335206,100,161, Restaurant or Cafeteria,48226
-83.142589,42.287488,176027,12500 Stocker,GREAT LAKES PETROLEUM TERMINAL,,ANNUAL 302 Site,2023/08/14 16:00:33+00,Yes,254184,-83.142589,42.287488,101,600," Ind., Utility, Defense, Agriculture, Mining - Other",48217
-83.244241,42.379784,176024,12640 Burt,Party City Wherehouse,CTC Distribution,ANNUAL Business Occupancy,2023/08/14 14:55:47+00,Yes,112964,-83.244241,42.379784,102,579," Motor Vehicle or Boat Sales, Services, Repair",48223
,,176023,12676 Burt,Party City Wherehouse,CFC Short Term,ANNUAL Business Occupancy,2023/08/14 13:54:34+00,Yes,,,,103,500," Mercantile, Business - Other",48223
-83.049722,42.334662,176295,1459 Woodward,Lululemon,WeWork,ANNUAL Mercantile Occupancy,2023/08/14 13:49:39+00,Yes,348407,-83.049722,42.334662,104,500," Mercantile, Business - Other",48226
-83.034844,42.431776,176028,18695 Sherwood,ALRO STEEL CORP,Alro Steel,ANNUAL 302 Site,2023/08/14 13:00:05+00,Yes,538643,-83.034844,42.431776,105,700," Manufacturing, Processing",48234
,,176022,12678 Burt,Party City,CFC Short Term,ANNUAL Business Occupancy,2023/08/14 12:53:59+00,Yes,,,,106,500," Mercantile, Business - Other",48223
-83.240461,42.386441,176124,20320 Schoolcraft,Adnan Nasser,,ANNUAL Repair Garage,2023/08/14 11:52:12+00,Yes,539060,-83.240461,42.386441,107,700," Manufacturing, Processing",28223
-83.238363,42.385884,176021,20121 Schoolcraft,"Mark Reliable Auto, Inc.",,ANNUAL Business Occupancy,2023/08/14 10:41:28+00,Yes,539009,-83.238363,42.385884,108,579," Motor Vehicle or Boat Sales, Services, Repair",48223
-83.049613,42.334661,176294,1449 Woodward,BEDROCK MANAGEMENT,1449 Woodward,ANNUAL Business Occupancy,2023/08/14 09:42:26+00,Yes,32162,-83.049613,42.334661,109,599, Business Office,48226
-83.013954,42.353902,176029,2131 Beaufait,GLEANERS COMMUNITY FOOD BANK,,ANNUAL 302 Site,2023/08/14 09:00:30+00,Yes,278656,-83.013954,42.353902,110,599, Business Office,48207
-83.104775,42.338867,176011,4036 Buchanan,Spring Baptist Church First Annual Fun Day,Springfield Baptist Church,ANNUAL Assembly Occupancy,2023/08/13 18:13:22+00,Yes,151898,-83.104775,42.338867,111,100, Assembly - Other,48235
-83.065242,42.375539,176010,7500 Oakland,GROUP 7500,,ANNUAL Business Occupancy,2023/08/13 17:38:57+00,Yes,341654,-83.065242,42.375539,112,UUU, Undetermined,48211
-82.975375,42.435344,176035,14305 East Seven Mile,Reign Development Center,Reign Development Center,ANNUAL Child Care Center (Day Care),2023/08/11 13:28:31+00,Yes,145517,-82.975375,42.435344,113,254," Day Care, In Commercial Property",48205
-83.224691,42.403038,170036,18577 Grand River,Indian Village cleaners,,ANNUAL Industrial Occupancy,2023/08/11 13:13:43+00,Yes,535788,-83.224691,42.403038,114,500," Mercantile, Business - Other",48223
-83.224947,42.403102,169967,18595 Grand River,FILL GOOD DENTAL CARE,,ANNUAL Business Occupancy,2023/08/11 12:33:39+00,Yes,544345,-83.224947,42.403102,115,342," Doctor, Dentist or Oral Surgeon Office",48223
-83.225778,42.403451,175965,18701 Grand River,UPS   Store #3986,UPS Store,ANNUAL Business Occupancy,2023/08/11 11:52:12+00,Yes,352612,-83.225778,42.403451,116,500," Mercantile, Business - Other",48223
-83.225764,42.40348,175963,18711 Grand River,Johnson Allstate,Johnson Family Agency,ANNUAL Business Occupancy,2023/08/11 10:51:54+00,Yes,123635,-83.225764,42.40348,117,599, Business Office,48223
-83.213142,42.444031,144905,17151 West EIGHT MILE Road,WEST EIGHT MILE FUEL,,ANNUAL Gas Station,2023/08/10 23:15:00+00,Yes,257533,-83.213142,42.444031,118,571," Service Station, Gas Station",48235
,,169525,1588 Franklin,Brix,,ANNUAL Mercantile Occupancy,2023/08/10 17:55:54+00,Yes,,,,119,500," Mercantile, Business - Other",48226
-83.226158,42.403556,169035,18731 Grand River,SALAMEH OIL CORP/MARATHON GAS,Marathon Gas,ANNUAL Gas Station,2023/08/10 16:46:28+00,Yes,123637,-83.226158,42.403556,120,571," Service Station, Gas Station",48223
-83.068377,42.359964,170492,5440 Cass,Common Pub,Belcrest Apartments,ANNUAL Assembly Occupancy,2023/08/10 16:27:18+00,Yes,265718,-83.068377,42.359964,121,100, Assembly - Other,48202
-83.006144,42.393623,175909,9739 Harper,Cricket,,ANNUAL Mercantile Occupancy,2023/08/10 16:10:27+00,Yes,350475,-83.006144,42.393623,122,500," Mercantile, Business - Other",48213
-83.228059,42.404364,152909,19001 Grand River,Michael C Hudgins General Dentistry,Michael C Hudgins General Dentistry,ANNUAL Business Occupancy,2023/08/10 15:55:59+00,Yes,122911,-83.228059,42.404364,123,599, Business Office,48223
-83.039683,42.331219,154479,519 East Jefferson,Sloppy Crab,Sloppy Crab,ANNUAL Assembly Occupancy,2023/08/10 15:45:49+00,Yes,56412,-83.039683,42.331219,124,162, Bar or Nightclub,48226
-83.135225,42.350807,170904,7645 Livernois,LIVERNOIS FUELS LLC/MARATHON GAS,MARATHON GAS,ANNUAL Gas Station,2023/08/10 15:44:39+00,Yes,222033,-83.135225,42.350807,125,571," Service Station, Gas Station",48210
-83.00602,42.393166,154961,9743 Harper,O.M.G WEAR,O.M.G WEAR,ANNUAL Mercantile Occupancy,2023/08/10 15:19:28+00,Yes,350477,-83.00602,42.393166,126,500," Mercantile, Business - Other",48213
-83.225028,42.415222,175951,18633 West McNichols,LIL BROS PIZZA,,ANNUAL Business Occupancy,2023/08/10 15:15:46+00,Yes,535791,-83.225028,42.415222,127,500," Mercantile, Business - Other",48219
-83.109163,42.345087,170906,4040 West Warren,AKA  Gas & food service LLC MOBIL GAS STATION,MOBILE GAS STATION,ANNUAL Gas Station,2023/08/10 15:10:51+00,Yes,347619,-83.109163,42.345087,128,571," Service Station, Gas Station",48210
-83.154302,42.445575,173769,8235 Eight Mile,Blasians walk-in salon,,ANNUAL Business Occupancy,2023/08/10 15:07:29+00,Yes,536567,-83.154302,42.445575,129,557," Personal Service, Including Barber & Beauty Shops",48221
-83.258781,42.429432,175928,22000 West Seven Mile,DAVE'S FIRE EXTINGUISHER CO,MANHATTAN FISH & CHICKEN,ANNUAL Mercantile Occupancy,2023/08/10 15:05:09+00,Yes,353211,-83.258781,42.429432,130,UUU, Undetermined,48219
,,175930,4400 Oakman Boulevard,Utopia Farms,,ANNUAL Business Occupancy,2023/08/10 15:04:44+00,Yes,,,,131,549, Specialty Shop,48226
-83.127605,42.390681,173770,3201 West Davison,"DAVISON TIRE EXPRESS, INC","DAVISON TIRE EXPRESS, INC.",ANNUAL Repair Garage,2023/08/10 14:53:12+00,Yes,348990,-83.127605,42.390681,132,600," Ind., Utility, Defense, Agriculture, Mining - Other",48238
-83.047986,42.330783,170375,719 Griswold,DIME STORE,Chrysler House,ANNUAL High Rise,2023/08/10 14:51:46+00,Yes,38377,-83.047986,42.330783,133,100, Assembly - Other,48226
-83.034355,42.434054,175898,6643 East Seven Mile,SAM'S WAYNE TIRES,SAM'S WAYNE TIRES,ANNUAL Business Occupancy,2023/08/10 14:41:40+00,Yes,262803,-83.034355,42.434054,134,500," Mercantile, Business - Other",48234
-83.192473,42.444748,175950,14711 West Eight Mile,Hot Wheel City,,ANNUAL Business Occupancy,2023/08/10 14:30:00+00,Yes,351613,-83.192473,42.444748,135,579," Motor Vehicle or Boat Sales, Services, Repair",48235
-82.940763,42.374084,175892,14700 jefferson,Johnson & Co. Salon,,ANNUAL Business Occupancy,2023/08/10 14:27:49+00,Yes,335345,-82.940763,42.374084,136,557," Personal Service, Including Barber & Beauty Shops",48215
-83.006684,42.393572,154959,9747 Harper,Metro PCS,,ANNUAL Mercantile Occupancy,2023/08/10 14:26:33+00,Yes,285002,-83.006684,42.393572,137,500," Mercantile, Business - Other",48213
-83.0161,42.356999,175896,2545 Beaufait,"WM S. MOLNAR, CO/ SlipNot",,ANNUAL Industrial Occupancy,2023/08/10 14:16:58+00,Yes,330798,-83.0161,42.356999,138,700," Manufacturing, Processing",48207
-83.120346,42.33176,175914,4220 Livernois,HAPPY'S PIZZA #9,Happys Pizza,ANNUAL Mercantile Occupancy,2023/08/10 14:11:55+00,Yes,349241,-83.120346,42.33176,139,500," Mercantile, Business - Other",48210
-83.258816,42.429494,175923,21700 West Seven Mile,Janvier Hair Collection,21700 W. Seven Mile Rd.,ANNUAL Mercantile Occupancy,2023/08/10 14:08:26+00,Yes,132986,-83.258816,42.429494,140,599, Business Office,48219
-83.229413,42.404851,152905,19111 Grand River,Grand River Auto Muffler & Complete Auto,,ANNUAL Repair Garage,2023/08/10 13:54:20+00,Yes,122670,-83.229413,42.404851,141,579," Motor Vehicle or Boat Sales, Services, Repair",48223
-83.041985,42.422319,170587,5944 East Davison,Davison & Mound Mobil gas & Subway,,ANNUAL Gas Station,2023/08/10 13:30:46+00,Yes,276516,-83.041985,42.422319,142,571," Service Station, Gas Station",48212
-83.012068,42.391905,175904,8933 Harper,SHANTININQUE MUSIC,,ANNUAL Mercantile Occupancy,2023/08/10 13:27:25+00,Yes,281155,-83.012068,42.391905,143,500," Mercantile, Business - Other",48213
-83.260508,42.429442,175932,22140 West Seven Mile,Sams Outlet Mattress,,ANNUAL Business Occupancy,2023/08/10 13:15:17+00,Yes,435536,-83.260508,42.429442,144,UUU, Undetermined,48219
-83.208576,42.444232,175949,16221 West Eight Mile,Murray Hill Motel,Murray Hill,ANNUAL Residential,2023/08/10 13:15:15+00,Yes,73322,-83.208576,42.444232,145,449," Hotel/motel, Commercial",48235
-83.270942,42.429855,166566,23500 West Seven Mile,GREATER GRACE CHURCH,Greater Grace Church,ANNUAL Assembly Occupancy,2023/08/10 13:11:25+00,Yes,536003,-83.270942,42.429855,146,100, Assembly - Other,48219
-83.066209,42.36104,176108,40 East Ferry,Children's Advocacy Center,Children's Advocacy Center,ANNUAL Business Occupancy,2023/08/10 13:00:00+00,Yes,536191,-83.066209,42.36104,147,599, Business Office,48202
-83.230733,42.405457,152903,19203 Grand River,John E Cash Ins. Agency Inc.,State Farm,ANNUAL Business Occupancy,2023/08/10 12:53:39+00,Yes,122667,-83.230733,42.405457,148,599, Business Office,48223
-83.212176,42.444092,175948,16941 West Eight Mile,SOUTHFIELD QUALITY CARS INC.,Southfield Quality Cars,ANNUAL Business Occupancy,2023/08/10 12:30:32+00,Yes,352203,-83.212176,42.444092,149,579," Motor Vehicle or Boat Sales, Services, Repair",48235
,,170253,1000 Mt Elliott,Planted Dteroit,,ANNUAL Business Occupancy,2023/08/10 12:17:05+00,Yes,,,,150,500," Mercantile, Business - Other",48207
-83.19454,42.444664,175920,15001 West Eight Mile,Pippen Palace Child Care Center,,ANNUAL Child Care Center (Day Care),2023/08/10 11:55:00+00,Yes,18423,-83.19454,42.444664,151,254," Day Care, In Commercial Property",48235
-83.231043,42.405574,175935,19231 Grand River,ELIAS DONUTS,Elias Donuts,ANNUAL Mercantile Occupancy,2023/08/10 11:52:19+00,Yes,122828,-83.231043,42.405574,152,500," Mercantile, Business - Other",48223
-83.231979,42.405913,175934,19335 Grand River,Get Well Urgent Care,Get Well Urgent Care,ANNUAL Business Occupancy,2023/08/10 10:51:57+00,Yes,122805,-83.231979,42.405913,153,300," Health Care, Detention & Correction - Other",48223
-83.213142,42.444031,156465,17151 B West Eight Mile,Leo's Coney Island,Leo's Coney Island,ANNUAL Business Occupancy,2023/08/10 10:45:00+00,Yes,257533,-83.213142,42.444031,154,161, Restaurant or Cafeteria,48235
,,175885,300 River Place,UNKNOWN,River Place,ANNUAL High Rise,2023/08/10 09:28:45+00,Yes,,,,155,599, Business Office,48226
-82.987898,42.435149,139276,13341 East Seven Mile,DOLLAR GENERAL #13505,Dollar General,ANNUAL Mercantile Occupancy,2023/08/10 08:56:51+00,Yes,459652,-82.987898,42.435149,156,500," Mercantile, Business - Other",48205
-82.9942,42.434437,137127,12720 East Seven Mile,Detailz Barber,Detailz Barber,ANNUAL Business Occupancy,2023/08/10 08:56:25+00,Yes,225590,-82.9942,42.434437,157,500," Mercantile, Business - Other",48205
-83.077501,42.4331,139185,2433 East Seven,Xclusive Apparel,Seven Mile Place,ANNUAL Mercantile Occupancy,2023/08/10 08:55:28+00,Yes,288596,-83.077501,42.4331,158,500," Mercantile, Business - Other",48234
-83.042247,42.418782,141421,5930 East McNichols,"D & H AUTO, INC.",,ANNUAL Mercantile Occupancy,2023/08/10 08:54:35+00,Yes,349554,-83.042247,42.418782,159,500," Mercantile, Business - Other",48212
-82.99656,42.422942,147136,12501 East McNichols,SACAZ AUTO REPAIR,,ANNUAL Repair Garage,2023/08/10 08:54:00+00,Yes,205379,-82.99656,42.422942,160,UUU, Undetermined,48205
-82.997081,42.422668,144280,12441 East McNichols,Motor City Muffler,Motor City Muffler,ANNUAL Repair Garage,2023/08/10 08:53:41+00,Yes,535245,-82.997081,42.422668,161,579," Motor Vehicle or Boat Sales, Services, Repair",482015
-82.998292,42.422264,155404,12341 East McNichols,LITTLE MIKE EXPRESS,Little Mike's Express,ANNUAL Mercantile Occupancy,2023/08/10 08:53:20+00,Yes,203220,-82.998292,42.422264,162,500," Mercantile, Business - Other",48205
-83.014619,42.341192,156343,3250 East Jefferson,BAYMONT INN & SUITES,BAYMONT INN & SUITES,ANNUAL Mercantile Occupancy,2023/08/10 08:51:10+00,Yes,240142,-83.014619,42.341192,163,449," Hotel/motel, Commercial",48207
-83.017128,42.341091,156870,3151 East Jefferson,T-Mobile #8619,,ANNUAL Mercantile Occupancy,2023/08/10 08:50:43+00,Yes,348977,-83.017128,42.341091,164,500," Mercantile, Business - Other",48207
-83.021667,42.338509,156132,2684 East Jefferson,BUCHAREST GRILL,CHENE SQUARE,ANNUAL Mercantile Occupancy,2023/08/10 08:50:07+00,Yes,348821,-83.021667,42.338509,165,500," Mercantile, Business - Other",48207
-82.994446,42.44886,155183,12744 East Eight Mile Road,Bargain Furniture,,ANNUAL Mercantile Occupancy,2023/08/10 08:47:57+00,Yes,492350,-82.994446,42.44886,166,500," Mercantile, Business - Other",48205
-83.072541,42.446816,160709,3000 East Eight Mile,"8 MILE & MITCHELL, INC. SUNOCO GAS STATION",SUNOCO GAS STATION,ANNUAL Gas Station,2023/08/10 08:46:34+00,Yes,299727,-83.072541,42.446816,167,500," Mercantile, Business - Other",48234
-83.07614,42.446796,155956,2600 East Eight Mile,"KFC/FQSR, LLC dba KBP Foods",,ANNUAL Mercantile Occupancy,2023/08/10 08:45:44+00,Yes,285858,-83.07614,42.446796,168,UUU, Undetermined,48234
-83.081262,42.446256,153313,2050 East Eight Mile,DOLLAR TREE #4111,Belmont Shopping Center,ANNUAL Mercantile Occupancy,2023/08/10 08:44:48+00,Yes,292691,-83.081262,42.446256,169,500," Mercantile, Business - Other",48234
-83.080963,42.446362,160900,2000 East Eight Mile,DTLR Store #3057,Belmont Shopping Center,ANNUAL Mercantile Occupancy,2023/08/10 08:44:23+00,Yes,348563,-83.080963,42.446362,170,500," Mercantile, Business - Other",48234
-83.081262,42.446256,160743,1960 East Eight Mile,Foot Locker #07013,,ANNUAL Mercantile Occupancy,2023/08/10 08:43:39+00,Yes,292682,-83.081262,42.446256,171,500," Mercantile, Business - Other",48234
-83.082497,42.4468,160738,1936 East Eight Mile,MOTOWN CONEY,BELMONT SHOPPING CENTER,ANNUAL Mercantile Occupancy,2023/08/10 08:43:09+00,Yes,348545,-83.082497,42.4468,172,100, Assembly - Other,48234
-83.081314,42.446247,160466,1920 East Eight Mile,T-Mobile #8718,T Mobile,ANNUAL Mercantile Occupancy,2023/08/10 08:42:48+00,Yes,348536,-83.081314,42.446247,173,500," Mercantile, Business - Other",48234
-82.954404,42.449829,160027,16086 East Eight Mile,Royalty Party Store,ROYALTY FOODS,ANNUAL Mercantile Occupancy,2023/08/10 08:41:53+00,Yes,99078,-82.954404,42.449829,174,500," Mercantile, Business - Other",48205
-82.967271,42.44952,156285,15036 East Eight Mile,Lovely Flawless Eyebrow Threading Spa,Lovely Flawless Eyebrow Threading Spa,ANNUAL Business Occupancy,2023/08/10 08:41:34+00,Yes,138500,-82.967271,42.44952,175,500," Mercantile, Business - Other",48205
-82.977544,42.449242,159578,14130 East Eight Mile,RENT-A-CENTER,,ANNUAL Mercantile Occupancy,2023/08/10 08:41:09+00,Yes,181739,-82.977544,42.449242,176,500," Mercantile, Business - Other",48205
-83.061144,42.41592,159558,3801 East Davison,BP Gas,HD Fuel LLC,ANNUAL Gas Station,2023/08/10 08:39:28+00,Yes,272101,-83.061144,42.41592,177,571," Service Station, Gas Station",48212
-83.061775,42.415107,156550,3600 East Davison,ALMALIKI FUEL INC.,76 Gas Station,ANNUAL Gas Station,2023/08/10 08:38:42+00,Yes,276603,-83.061775,42.415107,178,571," Service Station, Gas Station",48212
-83.036691,42.342927,153948,1600 Antietam,BUY N BYE,City Place Detroit,ANNUAL High Rise,2023/08/10 08:35:10+00,Yes,246723,-83.036691,42.342927,179,500," Mercantile, Business - Other",48207
-83.049421,42.333598,175821,45 Grand River,45 Grand River,45 GRAND RIVER,ANNUAL Business Occupancy,2023/08/09 18:06:13+00,Yes,41235,-83.049421,42.333598,180,599, Business Office,48226
-83.152506,42.294924,175820,333 South DIX,ROUGE AUTO SALES,,ANNUAL Repair Garage,2023/08/09 18:02:43+00,Yes,536149,-83.152506,42.294924,181,500," Mercantile, Business - Other",48217
-83.21052,42.358212,173647,16810 Joy,Austin Market,Austin Market,ANNUAL Mercantile Occupancy,2023/08/09 18:00:31+00,Yes,216126,-83.21052,42.358212,182,500," Mercantile, Business - Other",48228
-82.992352,42.400619,175788,9488 CONNER,Detroit Breakfast,Detroit Blues Breakfast,ANNUAL Assembly Occupancy,2023/08/09 17:39:07+00,Yes,247303,-82.992352,42.400619,183,100, Assembly - Other,48213
-83.261765,42.342026,166986,22640 West Warren,"Warren - Ann, Inc. BP GAS STATION",BP GAS STATION,ANNUAL Gas Station,2023/08/09 17:30:54+00,Yes,159675,-83.261765,42.342026,184,571," Service Station, Gas Station",48239
-83.25454,42.342157,166242,22040 West Warren,EASY GO AUTO GROUP LLC,EZ GO Towing & Auto Repair,ANNUAL Repair Garage,2023/08/09 17:00:49+00,Yes,215378,-83.25454,42.342157,185,579," Motor Vehicle or Boat Sales, Services, Repair",48239
-83.198524,42.391895,165447,14303 Greenfield,BBW Beauty Supply,,ANNUAL Mercantile Occupancy,2023/08/09 16:56:45+00,Yes,351437,-83.198524,42.391895,186,500," Mercantile, Business - Other",48227
-83.237326,42.343362,165937,20144 West Warren,Quality Care Oil,Quality Care Oil Change,ANNUAL Repair Garage,2023/08/09 16:30:54+00,Yes,213985,-83.237326,42.343362,187,579," Motor Vehicle or Boat Sales, Services, Repair",48228
-83.237326,42.343362,165939,20142 West Warren,Instant Auto Repair,Instant Auto Repair,ANNUAL Repair Garage,2023/08/09 16:15:14+00,Yes,541724,-83.237326,42.343362,188,579," Motor Vehicle or Boat Sales, Services, Repair",48228
-83.024933,42.443332,175828,20035 Van Dyke,NORTOWN COLLISION SERVICE,NORTOWN COLLISION SERVICE,ANNUAL Repair Garage,2023/08/09 16:00:00+00,Yes,268735,-83.024933,42.443332,189,579," Motor Vehicle or Boat Sales, Services, Repair",48234
-83.200031,42.393069,165428,15631 Grand River,GRAND RIVER AND GREENFIELD  LLC,,ANNUAL Mercantile Occupancy,2023/08/09 15:55:29+00,Yes,150861,-83.200031,42.393069,190,UUU, Undetermined,48227
-83.234989,42.343493,168484,19840 West Warren,Warrendale BP,BP GAS STATION,ANNUAL Gas Station,2023/08/09 15:30:35+00,Yes,215414,-83.234989,42.343493,191,571," Service Station, Gas Station",48228
-83.141264,42.435379,165856,19400 Livernois,Simply Casual Clothing Store,,ANNUAL Business Occupancy,2023/08/09 15:15:51+00,Yes,145708,-83.141264,42.435379,192,500," Mercantile, Business - Other",48221
-83.252967,42.443099,175748,21201 West Eight Mile,Super Dollar Center,,ANNUAL Mercantile Occupancy,2023/08/09 15:11:36+00,Yes,96905,-83.252967,42.443099,193,500," Mercantile, Business - Other",48219
-83.02494,42.443883,175827,20101 Van Dyke,JAY'S AUTO REPAIR,Jay's Auto Repair,ANNUAL Repair Garage,2023/08/09 15:00:00+00,Yes,269356,-83.02494,42.443883,194,579," Motor Vehicle or Boat Sales, Services, Repair",48234
-82.943376,42.44828,175731,20355 Kelly,KASHMERE DREAMS LLC,KASHMERE DREAMS LLC,ANNUAL Business Occupancy,2023/08/09 14:55:31+00,Yes,108720,-82.943376,42.44828,195,500," Mercantile, Business - Other",48225
-82.984336,42.427257,170561,13613 East McNichols,EXXON,Sunoco,ANNUAL Gas Station,2023/08/09 14:52:35+00,Yes,224875,-82.984336,42.427257,196,571," Service Station, Gas Station",48205
-83.101319,42.418175,170589,1 East McNichols,SIX & J GAS & MORE INC.,Citgo Gas,ANNUAL Gas Station,2023/08/09 14:50:01+00,Yes,159240,-83.101319,42.418175,197,571," Service Station, Gas Station",48203
-83.23353,42.343435,168416,19626 West Warren,ALPHA GROUP CAR LEASING INC,Alpha Group Car Leasing,ANNUAL Mercantile Occupancy,2023/08/09 14:45:18+00,Yes,215415,-83.23353,42.343435,198,500," Mercantile, Business - Other",48228
-83.139282,42.393836,169764,14350 Livernois,Savvy Sliders,Savvy Sliders,ANNUAL Business Occupancy,2023/08/09 14:30:32+00,Yes,517710,-83.139282,42.393836,199,161, Restaurant or Cafeteria,48238
-83.044195,42.433068,161024,5844 East Seven Mile,SEVEN MILE & MOUND PETRO INC/CITGO GAS,SEVEN MILE & MOUND PETRO/CITGO,ANNUAL Mercantile Occupancy,2023/08/09 14:18:01+00,Yes,299329,-83.044195,42.433068,200,571," Service Station, Gas Station",48234
-83.13314,42.393658,168890,13940 Dexter,Bailey's Liquor Store,Bailey's Liquor Store,ANNUAL Mercantile Occupancy,2023/08/09 14:00:00+00,Yes,32553,-83.13314,42.393658,201,500," Mercantile, Business - Other",48238
-83.187255,42.402142,170833,14444 Fenkell,AMA FOOD MART/MARATHON GAS STATION,MARATHON GAS STATION,ANNUAL Gas Station,2023/08/09 14:00:00+00,Yes,139914,-83.187255,42.402142,202,571," Service Station, Gas Station",48227
-82.943274,42.44994,175730,17000 East Eight Mile,WONDER YEARS,Wonder Years,ANNUAL Child Care Center (Day Care),2023/08/09 13:55:06+00,Yes,99593,-82.943274,42.44994,203,254," Day Care, In Commercial Property",48205
-83.199736,42.392747,165424,15601 Grand River,L.A. Insurance,GREEN FIELD COLLECTIVES,ANNUAL Business Occupancy,2023/08/09 13:54:45+00,Yes,150860,-83.199736,42.392747,204,500," Mercantile, Business - Other",48227
-83.23993,42.443519,175845,20001 Eight Mile,Nicky D's,Nickey D's,ANNUAL Mercantile Occupancy,2023/08/09 13:52:41+00,Yes,97025,-83.23993,42.443519,205,161, Restaurant or Cafeteria,48219
-83.11477,42.406122,147024,15400 Woodrow Wilson,DIVERSITAK INC.,"Diversified Chemical Technologies, Inc.",ANNUAL Industrial Occupancy,2023/08/09 13:45:03+00,Yes,10947,-83.11477,42.406122,206,UUU, Undetermined,48238
-83.256818,42.443065,175746,21613 West Eight Mile,Metro PCS,,ANNUAL Business Occupancy,2023/08/09 13:37:04+00,Yes,353191,-83.256818,42.443065,207,500," Mercantile, Business - Other",48219
-83.226648,42.343487,168331,19050 West Warren,Detroit Liquidation Center,Detroit Liquidtion,ANNUAL Mercantile Occupancy,2023/08/09 13:30:26+00,Yes,214000,-83.226648,42.343487,208,500," Mercantile, Business - Other",48228
-82.948884,42.371484,153712,13337 East Jefferson,Detroit's Finest Coney Island,Detroit's Finest,ANNUAL Mercantile Occupancy,2023/08/09 13:24:12+00,Yes,323670,-82.948884,42.371484,209,500," Mercantile, Business - Other",48215
-83.062632,42.35358,173533,4501 Woodward,H&R Block,STUDIO 1 PLAZA,ANNUAL Assembly Occupancy,2023/08/09 13:22:45+00,Yes,327911,-83.062632,42.35358,210,599, Business Office,48201
-83.200834,42.44064,166678,20123 Greenfield,Miami Nails,Murray Hill Plaza,ANNUAL Business Occupancy,2023/08/09 13:15:44+00,Yes,69207,-83.200834,42.44064,211,500," Mercantile, Business - Other",48235
-83.046265,42.333701,173902,1000 Woodward,TEXAS DE BRAZIL,One Campus Martius,ANNUAL Mercantile Occupancy,2023/08/09 13:06:46+00,Yes,348182,-83.046265,42.333701,212,161, Restaurant or Cafeteria,48226
-83.056641,42.344995,173899,3157 Woodward,"FIRE SYSTEMS OF MICHIGAN, INC",Pierce Building,ANNUAL Mercantile Occupancy,2023/08/09 13:05:11+00,Yes,329263,-83.056641,42.344995,213,500," Mercantile, Business - Other",48201
-83.226338,42.343526,168327,19020 West Warren,Mac Auto Service,Warren Auto Repair,ANNUAL Repair Garage,2023/08/09 13:00:25+00,Yes,389117,-83.226338,42.343526,214,579," Motor Vehicle or Boat Sales, Services, Repair",48228
-83.256361,42.400612,159922,21740 Fenkell,Brightmoor Petroleum Inc.,MARATHON GAS STATION,ANNUAL Business Occupancy,2023/08/09 13:00:00+00,Yes,110590,-83.256361,42.400612,215,571," Service Station, Gas Station",48223
,,173898,3161 WOODWARD,JOYNER JUICERY,,ANNUAL Mercantile Occupancy,2023/08/09 12:58:38+00,Yes,,,,216,500," Mercantile, Business - Other",48226
-83.145252,42.416902,175844,7401 West McNichols,TMO BBQ,,ANNUAL Business Occupancy,2023/08/09 12:54:30+00,Yes,94896,-83.145252,42.416902,217,500," Mercantile, Business - Other",48221
-83.198921,42.392043,165420,14311 Greenfield,Swagg Wear LLC,,ANNUAL Mercantile Occupancy,2023/08/09 12:53:43+00,Yes,150858,-83.198921,42.392043,218,500," Mercantile, Business - Other",48227
-83.200478,42.4403,166679,20117 Greenfield,CLOUD NINE,Murray Hill Plaza,ANNUAL Business Occupancy,2023/08/09 12:45:30+00,Yes,353007,-83.200478,42.4403,219,UUU, Undetermined,48235
-83.256346,42.44306,175747,21559 West Eight Mile,LIQUOR DEPOT,,ANNUAL Business Occupancy,2023/08/09 12:41:06+00,Yes,96867,-83.256346,42.44306,220,500," Mercantile, Business - Other",48219
,,167266,454 East Lafayette,Loco's Bar & Grill,Loco's Bar & Grill,ANNUAL Assembly Occupancy,2023/08/09 12:37:45+00,Yes,547268,,,221,160," Eating, Drinking Places - Other",48226
-83.159601,42.409476,170431,8943 Puritan,JAZZO GROUP INC. (CITGO GAS),CITGO GAS STATION,ANNUAL Gas Station,2023/08/09 12:29:17+00,Yes,94906,-83.159601,42.409476,222,571," Service Station, Gas Station",48238
-83.257915,42.442789,175745,21729 West Eight Mile,LA INSURANCE,,ANNUAL Mercantile Occupancy,2023/08/09 12:26:47+00,Yes,96789,-83.257915,42.442789,223,UUU, Undetermined,48219
-83.257915,42.442789,175743,21721 West Eight Mile,New Life Nails,,ANNUAL Business Occupancy,2023/08/09 12:24:27+00,Yes,96788,-83.257915,42.442789,224,500," Mercantile, Business - Other",48219
,,175741,21711 West Eight Mile,Hollywood Beauty Supply,,ANNUAL Mercantile Occupancy,2023/08/09 12:21:33+00,Yes,548213,,,225,500," Mercantile, Business - Other",48219
-82.935394,42.415192,175716,6150 Cadieux,Dedicated Service Medical Center,,ANNUAL Business Occupancy,2023/08/09 12:20:02+00,Yes,306806,-82.935394,42.415192,226,300," Health Care, Detention & Correction - Other",48224
-83.223617,42.343037,168347,18741 West Warren,DAILY MART INC. (Citgo Gas),CITGO GAS STATION,ANNUAL Gas Station,2023/08/09 12:15:51+00,Yes,214052,-83.223617,42.343037,227,571," Service Station, Gas Station",48228
-83.257915,42.442789,175738,21651 West Eight Mile,CHRONIC RELEAF,,ANNUAL Mercantile Occupancy,2023/08/09 12:14:46+00,Yes,96787,-83.257915,42.442789,228,500," Mercantile, Business - Other",48219
-83.19976,42.444542,167064,15421 West Eight Mile,U-WASH CORP.,,ANNUAL Business Occupancy,2023/08/09 12:10:31+00,Yes,18166,-83.19976,42.444542,229,500," Mercantile, Business - Other",48235
-83.222404,42.402218,141453,18453 Grand River,Metro Pcs,Metro Pcs,ANNUAL Mercantile Occupancy,2023/08/09 11:51:41+00,Yes,352533,-83.222404,42.402218,230,500," Mercantile, Business - Other",48223
-83.21691,42.343717,168108,18142 West Warren,Crossroads Communities Inc.,Marathon Gas Station,ANNUAL Gas Station,2023/08/09 11:45:00+00,Yes,215444,-83.21691,42.343717,231,571," Service Station, Gas Station",48228
-83.216832,42.343025,170736,18141 West Warren,Paradise Fuel Inc.,Marathon Gas Station,ANNUAL Gas Station,2023/08/09 11:30:00+00,Yes,214050,-83.216832,42.343025,232,571," Service Station, Gas Station",48228
,,175732,21741 West Eight Mile,Appliances 4 Less,,ANNUAL Business Occupancy,2023/08/09 11:13:06+00,Yes,,,,233,599, Business Office,48219
-83.142857,42.445762,166958,6333 West Eight Mile,WENDY'S RESTAURANT #820,,ANNUAL Business Occupancy,2023/08/09 10:30:04+00,Yes,19337,-83.142857,42.445762,234,500," Mercantile, Business - Other",48221
-83.195586,42.357823,177578,15327 Joy,Unique AUTO REPAIR,Unique Auto Repair,ANNUAL Repair Garage,2023/09/21 15:49:10+00,Yes,216113,-83.195586,42.357823,235,579," Motor Vehicle or Boat Sales, Services, Repair",48228
-83.164062,42.287144,175733,471 South Schaefer,"ROYAL HIGHNESS PC4, LLC",Ivy League,ANNUAL Business Occupancy,2023/08/09 09:54:48+00,Yes,347980,-83.164062,42.287144,236,500," Mercantile, Business - Other",48217
-83.262675,42.442834,175751,22325 West Eight Mile,TRJ PROPERTIES,,ANNUAL Residential,2023/08/09 04:52:25+00,Yes,105513,-83.262675,42.442834,237,400, Residential - Other,48219
-83.216594,42.401404,173094,17706 Fenkell,RT Beauty and Barber,,ANNUAL Business Occupancy,2023/08/08 23:45:14+00,Yes,352384,-83.216594,42.401404,238,557," Personal Service, Including Barber & Beauty Shops",48227
-83.169863,42.401877,172229,12721 Fenkell,KTA FOOD AND FUEL (Marathon Station),MARATHON GAS,ANNUAL Gas Station,2023/08/08 23:38:04+00,Yes,86837,-83.169863,42.401877,239,571," Service Station, Gas Station",48227
-83.021773,42.360877,170391,3561 Mt Elliott,KEEMOO Fuel & More Inc,CITGO GAS,ANNUAL Gas Station,2023/08/08 23:35:10+00,Yes,327054,-83.021773,42.360877,240,571," Service Station, Gas Station",48207
-83.023879,42.364135,170144,3766 Gratiot,"GRATIOT GAS EXPRESS, INC",Gratiot Gas Express,ANNUAL Gas Station,2023/08/08 23:33:14+00,Yes,539566,-83.023879,42.364135,241,571," Service Station, Gas Station",48207
-83.064008,42.35057,175695,4201 cass,Toarminas Pizza,,ANNUAL Mercantile Occupancy,2023/08/08 18:16:39+00,Yes,329173,-83.064008,42.35057,242,161, Restaurant or Cafeteria,48201
-83.201698,42.416249,175678,15640 West McNichols,JLC ENTERPRISES INC.,,ANNUAL Business Occupancy,2023/08/08 17:52:28+00,Yes,63978,-83.201698,42.416249,243,000, Property Use - Other,48235
-83.138803,42.379332,175663,12220 Livernois,Fleet Motors USA,,ANNUAL Business Occupancy,2023/08/08 17:46:57+00,Yes,83822,-83.138803,42.379332,244,579," Motor Vehicle or Boat Sales, Services, Repair",48204
-83.201698,42.416249,175677,15640 West McNichols Ste B,Boost Mobile #204,,ANNUAL Mercantile Occupancy,2023/08/08 17:42:37+00,Yes,63978,-83.201698,42.416249,245,500," Mercantile, Business - Other",48235
-82.968628,42.449446,175712,14900 East Eight Mile,DUNKIN DONUTS,Dunkin Donuts,ANNUAL Mercantile Occupancy,2023/08/08 17:00:20+00,Yes,225343,-82.968628,42.449446,246,500," Mercantile, Business - Other",48205
-83.025031,42.442701,175701,19989 Van Dyke,A. B. CUT RATE AUTO,AB Cut Rate Auto Repair,ANNUAL Repair Garage,2023/08/08 17:00:00+00,Yes,352972,-83.025031,42.442701,247,579," Motor Vehicle or Boat Sales, Services, Repair",48234
-83.233013,42.406266,175693,19401 Grand River,Comerica Bank,Comerica Bank,ANNUAL Business Occupancy,2023/08/08 16:56:36+00,Yes,121165,-83.233013,42.406266,248,599, Business Office,48223
-83.138396,42.370995,175662,10300 Livernois,"Cooper Auto Service, Inc.",Cooper Auto Service,ANNUAL Repair Garage,2023/08/08 16:49:54+00,Yes,72856,-83.138396,42.370995,249,579," Motor Vehicle or Boat Sales, Services, Repair",48204
-83.044591,42.447384,170439,20581 Mound,A&A  PETRO MART INC/SUNOCO GAS STATION,A & A PETRO MART SUNOCO GAS STATION,ANNUAL Gas Station,2023/08/08 16:38:22+00,Yes,299665,-83.044591,42.447384,250,571," Service Station, Gas Station",48234
-83.024861,42.440801,175704,19851 Van Dyke,Kwik Kar Oil Change,Metro PCS,ANNUAL Repair Garage,2023/08/08 16:00:00+00,Yes,268754,-83.024861,42.440801,251,579," Motor Vehicle or Boat Sales, Services, Repair",48234
-82.934772,42.412658,175714,5901 Cadieux,GREAT BEGINNINGS EARLY LEARNING ACADEMY,Bethany Christian Church,ANNUAL Assembly Occupancy,2023/08/08 15:33:34+00,Yes,306789,-82.934772,42.412658,252,131," Church, Mosque, Synagogue, Temple, Chapel",48224
-83.044315,42.338346,175706,541 Madison,GREGORY BOAT,,ANNUAL 302 Site,2023/08/08 15:30:47+00,Yes,24068,-83.044315,42.338346,253,UUU, Undetermined,48226
-83.172252,42.356912,176036,8536 WARD,rgh,,ANNUAL Institutional Occupancy,2023/08/08 15:07:45+00,Yes,193380,-83.172252,42.356912,254,321, Mental Retardation/development Disability Facility,48221
-83.234976,42.407122,175692,19541 Grand River,ORSONS COLLISION,,ANNUAL Repair Garage,2023/08/08 14:55:27+00,Yes,127190,-83.234976,42.407122,255,579," Motor Vehicle or Boat Sales, Services, Repair",48223
-83.025146,42.447437,162839,20481 Van Dyke,B & G Creative Gift Shop,B & G Creative Gift Shop,ANNUAL Mercantile Occupancy,2023/08/08 14:00:00+00,Yes,353093,-83.025146,42.447437,256,500," Mercantile, Business - Other",48234
-83.237627,42.429368,175669,19737 West Seven Mile,PLANET 313,,ANNUAL Mercantile Occupancy,2023/08/08 13:57:10+00,Yes,352931,-83.237627,42.429368,257,500," Mercantile, Business - Other",48219
-83.182544,42.427587,175660,18600 James Couzens,VACANT,,ANNUAL Business Occupancy,2023/08/08 13:56:45+00,Yes,220202,-83.182544,42.427587,258,UUU, Undetermined,48235
-83.235739,42.407997,154368,19640 Grand River,"National Tax services, Inc.",,ANNUAL Business Occupancy,2023/08/08 13:54:22+00,Yes,123664,-83.235739,42.407997,259,599, Business Office,48223
-83.073932,42.327673,175705,1770 14th,UNITED STATES POST OFFICE,U.S.P.S. Vehicle Maintenance Facility,ANNUAL 302 Site,2023/08/08 13:00:10+00,Yes,538438,-83.073932,42.327673,260,579," Motor Vehicle or Boat Sales, Services, Repair",48216
-83.080481,42.367206,175659,2894 W Grand Blvd,Good Burger,Mall,ANNUAL Mercantile Occupancy,2023/08/08 12:35:58+00,Yes,335880,-83.080481,42.367206,261,500," Mercantile, Business - Other",48226
-83.116117,42.406172,175793,15477 Woodrow Wilson,DIVERSIFIED CHEMICAL TECHNOLOGIES,DIVERSIFIED CHEMICAL TECHNOLOGIES,ANNUAL Industrial Occupancy,2023/08/08 12:30:00+00,Yes,12841,-83.116117,42.406172,262,500," Mercantile, Business - Other",48238
-83.202858,42.343445,175668,16131 West Warren,IMAN'S BAKERY,Warrendale Plaza,ANNUAL Business Occupancy,2023/08/08 12:18:15+00,Yes,351994,-83.202858,42.343445,263,500," Mercantile, Business - Other",48228
-83.237392,42.409303,154822,16444 Evergreen,O'REILLY AUTO PARTS,,ANNUAL Mercantile Occupancy,2023/08/08 11:52:59+00,Yes,127186,-83.237392,42.409303,264,500," Mercantile, Business - Other",48219
-83.114756,42.404923,175792,14410 Woodrow Wilson,ADHESIVE SYSTEM,"ADHESIVE SYSTEMS, INC",ANNUAL Industrial Occupancy,2023/08/08 11:30:00+00,Yes,12812,-83.114756,42.404923,265,UUU, Undetermined,48238
-83.116363,42.407039,175791,15533 Woodrow Wilson,RICKMAN ENTERPRISE GROUP LLC.,,ANNUAL Business Occupancy,2023/08/08 10:30:02+00,Yes,351856,-83.116363,42.407039,266,UUU, Undetermined,48238
-83.032714,42.39319,175707,6520 Georgia,U.S. Ecology,U.S. ECOLOGY,ANNUAL 302 Site,2023/08/08 10:00:40+00,Yes,283584,-83.032714,42.39319,267,600," Ind., Utility, Defense, Agriculture, Mining - Other",48211
-83.051903,42.329042,175655,460 West Fort,West Fort Mobil (Sunoco Gas Station),FIRST AND FORT SERVICE ( SUNOCO  GAS ),ANNUAL Gas Station,2023/08/07 17:46:02+00,Yes,36216,-83.051903,42.329042,268,571," Service Station, Gas Station",48226
-83.255585,42.386268,170911,21746 Schoolcraft,ALHALEMI GAS & MART INC.,B P Gas Station,ANNUAL Gas Station,2023/08/07 16:00:00+00,Yes,147721,-83.255585,42.386268,269,571," Service Station, Gas Station",48223
-82.945136,42.449887,175643,16850 East Eight Mile,"BEST OF MICHIGAN AUTO SALES, LLC",Legacy Motors,ANNUAL Business Occupancy,2023/08/07 15:09:22+00,Yes,99564,-82.945136,42.449887,270,579," Motor Vehicle or Boat Sales, Services, Repair",48205
-83.257293,42.415153,170914,21740 West McNichols,A&M  AUTO REPAIR,SUNOCO GAS STATION,ANNUAL Gas Station,2023/08/07 15:00:03+00,Yes,353207,-83.257293,42.415153,271,579," Motor Vehicle or Boat Sales, Services, Repair",48201
-83.123708,42.399681,175656,1400 Oakman Boulevard,FOCUS HOPE - C.A.T. BUILDING,FOCUS HOPE - ANDROID,ANNUAL 302 Site,2023/08/07 14:57:46+00,Yes,12777,-83.123708,42.399681,272,100, Assembly - Other,48238
-82.945501,42.449981,175642,16838 East Eight Mile,GARY COOPER,Joy Bells,ANNUAL Child Care Center (Day Care),2023/08/07 13:40:04+00,Yes,99526,-82.945501,42.449981,273,UUU, Undetermined,48205
-83.140086,42.408946,170745,15880 Livernois,AMOCO GAS STATION,AMOCO GAS STATION,ANNUAL Gas Station,2023/08/07 13:00:00+00,Yes,9719,-83.140086,42.408946,274,571," Service Station, Gas Station",48238
-83.198784,42.415632,170832,15445 West McNichols,SIX MILE & GREENFIELD INC BP GAS STATION,BP GAS STATION,ANNUAL Gas Station,2023/08/07 12:00:00+00,Yes,142840,-83.198784,42.415632,275,571," Service Station, Gas Station",48235
-83.176579,42.430857,170829,13141 West Seven Mile,M AND F SERVICE / Citgo Gas Station,CITGO Gas Station,ANNUAL Gas Station,2023/08/07 11:00:00+00,Yes,220814,-83.176579,42.430857,276,571," Service Station, Gas Station",48235
-83.063082,42.447059,167347,4130 East Eight Mile,Kwicky Bar,KWICKY BAR,ANNUAL Assembly Occupancy,2023/08/05 23:39:49+00,Yes,286203,-83.063082,42.447059,277,162, Bar or Nightclub,48234
-83.04956,42.33566,175618,1540 Woodward,Bleu Detroit LLC,Bleu Detroit,ANNUAL Assembly Occupancy,2023/08/05 21:36:18+00,Yes,348432,-83.04956,42.33566,278,162, Bar or Nightclub,48226
-83.181709,42.416311,170504,13741 West McNichols,Sweet Soul Bistro,Sweet Soul Bistro,ANNUAL Assembly Occupancy,2023/08/04 19:30:27+00,Yes,535369,-83.181709,42.416311,279,100, Assembly - Other,48235
-83.176088,42.416873,175593,13226 McNichols  West,Sloppy Chops,,ANNUAL Assembly Occupancy,2023/08/04 19:00:58+00,Yes,67639,-83.176088,42.416873,280,100, Assembly - Other,48235
-83.174082,42.372838,175629,13155 Plymouth,US 1 AUTO SALES,US 1 AUTO SALES LLC,ANNUAL Repair Garage,2023/08/04 16:20:42+00,Yes,216424,-83.174082,42.372838,281,579," Motor Vehicle or Boat Sales, Services, Repair",48227
-83.138784,42.360373,167357,8867 Livernois,Soul on Ice,,ANNUAL Assembly Occupancy,2023/08/04 14:53:37+00,Yes,216214,-83.138784,42.360373,282,100, Assembly - Other,48204
-83.040718,42.329826,175632,300 Renaissance Center,Sam's Tailor Shop,Tower 300,ANNUAL 302 Site,2023/08/04 14:25:01+00,Yes,347873,-83.040718,42.329826,283,500," Mercantile, Business - Other",48207
-83.182215,42.372572,175630,13747 PLYMOUTH,WOODY'S AUTO LLC,All Auto Parts,ANNUAL Mercantile Occupancy,2023/08/04 13:57:47+00,Yes,537510,-83.182215,42.372572,284,579," Motor Vehicle or Boat Sales, Services, Repair",48227
-83.05158,42.333165,175317,1249 Washington Boulevard,Book Tower,1249-1265 Washington Blvd.,ANNUAL High Rise,2023/08/04 13:48:05+00,Yes,29902,-83.05158,42.333165,285,500," Mercantile, Business - Other",48226
-83.049077,42.35522,175561,1003 Leland,FRIENDSHIP MEADOWS II,PHASE II,ANNUAL Residential,2023/08/04 12:35:00+00,Yes,259555,-83.049077,42.35522,286,UUU, Undetermined,48207
-83.048577,42.354467,175560,1001 Leland,FRIENDSHIP MEADOWS,PHASE ONE,ANNUAL Residential,2023/08/04 12:26:00+00,Yes,259452,-83.048577,42.354467,287,400, Residential - Other,48207
,,175546,1511 Broadway,Sid Golds,Sid Golds,ANNUAL Assembly Occupancy,2023/08/04 10:50:18+00,Yes,548122,,,288,100, Assembly - Other,48226
-83.048725,42.335735,175545,1515 Broadway,Social Grooming Co,1515 Broadway,ANNUAL Business Occupancy,2023/08/04 10:43:10+00,Yes,44990,-83.048725,42.335735,289,500," Mercantile, Business - Other",48226
-83.048638,42.335695,175543,1509 Broadway,1509 Broadway,WURLITZER BUILDING,ANNUAL Business Occupancy,2023/08/04 08:59:52+00,Yes,44415,-83.048638,42.335695,290,449," Hotel/motel, Commercial",48226
-83.199269,42.359246,175568,15690 Joy Rd.,Gateway Pharmacy,Gateway Pharmacy,ANNUAL Mercantile Occupancy,2023/08/04 08:05:46+00,Yes,216196,-83.199269,42.359246,291,500," Mercantile, Business - Other",48228
-82.980183,42.354355,175537,202 Parkview,City of Detroit Sub-Station,,ANNUAL Business Occupancy,2023/08/03 16:46:32+00,Yes,243910,-82.980183,42.354355,292,610, Energy Production Plant - Other,48207
-83.095587,42.323922,175667,2200 Scotten,Taqueria El Rincon Tapatio,Taqueria El Rincon Tapatio,ANNUAL Mercantile Occupancy,2023/08/03 16:38:52+00,Yes,539173,-83.095587,42.323922,293,160," Eating, Drinking Places - Other",48209
-82.944913,42.446252,175503,20141 Kelly,Life Builders,Life Builders,ANNUAL Business Occupancy,2023/08/03 16:35:07+00,Yes,116405,-82.944913,42.446252,294,599, Business Office,48225
-83.050422,42.345236,169544,2900 Brush,PRESBYTERIAN VILLAGE MANOR,,ANNUAL Residential,2023/08/03 16:00:00+00,Yes,227930,-83.050422,42.345236,295,UUU, Undetermined,48226
,,175552,9101 St. Cyril,Flex N Gate,Flex N Gate,ANNUAL 302 Site,2023/08/03 15:45:51+00,Yes,,,,296,600," Ind., Utility, Defense, Agriculture, Mining - Other",48211
-83.135008,42.416904,170583,3345 West McNichols,6 MILE CITGO ATLAS VENTURE LLC,6 MILE CITGO ATLAS VENTURE LLC,ANNUAL Gas Station,2023/08/03 15:10:51+00,Yes,12831,-83.135008,42.416904,297,571," Service Station, Gas Station",48221
-83.102035,42.439838,147711,1 East State Fair,JOHN R. GAS & GO,Citgo Gas Station,ANNUAL Gas Station,2023/08/03 15:00:02+00,Yes,277800,-83.102035,42.439838,298,571," Service Station, Gas Station",48203
-83.196404,42.3386,175556,6535 Greenfield,Dura Metro,AAA Plaza,ANNUAL Mercantile Occupancy,2023/08/03 14:45:43+00,Yes,349684,-83.196404,42.3386,299,500," Mercantile, Business - Other",48228
-82.943734,42.447783,175502,20303 Kelly,CNS HEALTH CARE,,ANNUAL Business Occupancy,2023/08/03 14:44:54+00,Yes,108728,-82.943734,42.447783,300,300," Health Care, Detention & Correction - Other",48225
-83.190981,42.401946,158173,14744 Fenkell,Kim's Beauty Bar,,ANNUAL Mercantile Occupancy,2023/08/03 13:54:09+00,Yes,537824,-83.190981,42.401946,301,557," Personal Service, Including Barber & Beauty Shops",48227
-83.104968,42.344607,175511,3845 West Warren,VICKI'S BARBECUE & SHRIMP,Vicki's Bar-B-Q,ANNUAL Business Occupancy,2023/08/03 13:12:46+00,Yes,154416,-83.104968,42.344607,302,500," Mercantile, Business - Other",48208
-83.038485,42.427498,175510,18070 Mt Elliott,Sistah's Braid Too,Sistah's Braid Too,ANNUAL Business Occupancy,2023/08/03 13:00:00+00,Yes,538489,-83.038485,42.427498,303,500," Mercantile, Business - Other",48212
-83.190829,42.40195,175516,14730 Fenkell,Bladyz,,ANNUAL Business Occupancy,2023/08/03 12:52:26+00,Yes,537821,-83.190829,42.40195,304,557," Personal Service, Including Barber & Beauty Shops",48227
-83.191013,42.401949,158172,14740 Fenkell,Allure Empire,,ANNUAL Mercantile Occupancy,2023/08/03 12:52:02+00,Yes,351625,-83.191013,42.401949,305,500," Mercantile, Business - Other",48227
-82.97642,42.43553,175496,14318 Gratiot,FAMILY DOLLAR #28708,Northeast Village Shops,ANNUAL Mercantile Occupancy,2023/08/03 12:06:03+00,Yes,97673,-82.97642,42.43553,306,500," Mercantile, Business - Other",48205
-82.995711,42.351177,142531,7875 East Jefferson,JEFFERSON LIQUOR MART INC,,ANNUAL Mercantile Occupancy,2023/08/03 12:00:00+00,Yes,282046,-82.995711,42.351177,307,UUU, Undetermined,48214
-83.135354,42.318797,175551,3100 Lonyo,FPT LONYO,Ferrous Processing & Trading,ANNUAL 302 Site,2023/08/03 11:15:52+00,Yes,348956,-83.135354,42.318797,308,700," Manufacturing, Processing",48209
-83.189739,42.402052,158175,14646 Fenkell,QUALITY AUTO SALES,B & D AUTO AND TRUCK SERVICE,ANNUAL Repair Garage,2023/08/03 10:51:18+00,Yes,351593,-83.189739,42.402052,309,579," Motor Vehicle or Boat Sales, Services, Repair",48227
-82.920723,42.397184,175526,17255 Mack,PARKIES LIQUOR INC,PARKIE'S LIQUOR STORE,ANNUAL Mercantile Occupancy,2023/08/03 10:48:01+00,Yes,333534,-82.920723,42.397184,310,500," Mercantile, Business - Other",48224
-82.977394,42.435226,175218,14302 Gratiot,K & H Nails Spa,Northeast Village Shops,ANNUAL Business Occupancy,2023/08/03 10:36:36+00,Yes,351436,-82.977394,42.435226,311,500," Mercantile, Business - Other",48205
-83.196388,42.338676,175554,6545 Greenfield,Computer & Network solutions,AAA Plaza,ANNUAL Business Occupancy,2023/08/03 09:45:02+00,Yes,349691,-83.196388,42.338676,312,500," Mercantile, Business - Other",48228
-83.17162,42.431505,175458,12730 Seven Mile,Boost moble,Boost moble,ANNUAL Mercantile Occupancy,2023/08/02 17:25:45+00,Yes,535268,-83.17162,42.431505,313,500," Mercantile, Business - Other",48235
-83.176192,42.379711,175462,13300 Foley,Westfield Group,,ANNUAL Industrial Occupancy,2023/08/02 17:07:02+00,Yes,537363,-83.176192,42.379711,314,655, Crops or Orchard,48227
-83.237222,42.429368,175477,19721 West Seven Mile,Crab House,Crab House,ANNUAL Business Occupancy,2023/08/02 16:56:50+00,Yes,101346,-83.237222,42.429368,315,100, Assembly - Other,48219
-83.171993,42.394528,175483,12775 Lyndon,COMCAST CABLEVISION,COMCAST CABLEVISION,ANNUAL 302 Site,2023/08/02 16:45:13+00,Yes,85798,-83.171993,42.394528,316,500," Mercantile, Business - Other",48227
-83.17778,42.380645,175460,13550 Fullerton,Access Point Transport,,ANNUAL Business Occupancy,2023/08/02 16:24:38+00,Yes,437845,-83.17778,42.380645,317,579," Motor Vehicle or Boat Sales, Services, Repair",48227
-82.973143,42.449327,175452,14620 East Eight Mile,Mama's Family Restaurant,,ANNUAL Assembly Occupancy,2023/08/02 16:00:26+00,Yes,183199,-82.973143,42.449327,318,100, Assembly - Other,48205
-83.236954,42.429346,175476,19701 West Seven Mile,"NEW CHOICE INVESTMENTS, LLC",,ANNUAL Mercantile Occupancy,2023/08/02 15:55:55+00,Yes,352918,-83.236954,42.429346,319,500," Mercantile, Business - Other",48219
-83.145707,42.386634,170791,7500 West Davison,GARASH PETROLEUM INC/MARATHON GAS,MARATHON GAS STATION,ANNUAL Gas Station,2023/08/02 15:45:34+00,Yes,83800,-83.145707,42.386634,320,571," Service Station, Gas Station",48238
-83.013985,42.434414,170663,11001 East Seven Mile,Mobil Gas Station,,ANNUAL Gas Station,2023/08/02 15:32:40+00,Yes,255014,-83.013985,42.434414,321,571," Service Station, Gas Station",48234
-83.049237,42.32658,175634,1 Washington Boulevard,NAIAS 2023,Huntington Center,ANNUAL 302 Site,2023/08/02 15:27:53+00,Yes,284510,-83.049237,42.32658,322,100, Assembly - Other,48226
-82.980965,42.449208,156351,13910 East Eight Mile,Animal Clinic East,,ANNUAL Business Occupancy,2023/08/02 15:25:14+00,Yes,183606,-82.980965,42.449208,323,341," Clinic, Clinic-type Infirmary",48205
-83.024895,42.447048,175447,20491 Van Dyke,Amy's Hair Braiding,Taif's African Hair Braiding,ANNUAL Business Occupancy,2023/08/02 15:00:00+00,Yes,353096,-83.024895,42.447048,324,500," Mercantile, Business - Other",48234
-83.240524,42.378497,175484,12499 Evergreen,Sherwood Food Distributors,Sherwood Food Distributors,ANNUAL 302 Site,2023/08/02 14:00:19+00,Yes,350966,-83.240524,42.378497,325,500," Mercantile, Business - Other",48228
-82.97419,42.441068,173612,14777 Gratiot,Detroit K-9 Pet Supplies,K-9 Dog Food,ANNUAL Mercantile Occupancy,2023/08/02 13:48:37+00,Yes,216267,-82.97419,42.441068,326,500," Mercantile, Business - Other",48205
-83.014243,42.351929,173096,1779 Meldrum,On The Rise Bakery,,ANNUAL Business Occupancy,2023/08/02 13:44:27+00,Yes,412388,-83.014243,42.351929,327,500," Mercantile, Business - Other",48207
-83.02629,42.360707,175602,3506 Gratiot,Hosmer Library,,ANNUAL Business Occupancy,2023/08/02 13:39:21+00,Yes,539509,-83.02629,42.360707,328,500," Mercantile, Business - Other",48207
,,169752,19155 Plymouth,Boost Mobile,,ANNUAL Mercantile Occupancy,2023/08/02 13:00:13+00,Yes,,,,329,500," Mercantile, Business - Other",48228
-83.194285,42.43033,166937,15025 West Seven Mile,Save on,Save On Foods 7 Mile Inc.,ANNUAL Mercantile Occupancy,2023/08/02 12:53:57+00,Yes,64520,-83.194285,42.43033,330,500," Mercantile, Business - Other",48235
-83.001086,42.348019,170396,7255 East Jefferson,AL GAHAIM,,ANNUAL Mercantile Occupancy,2023/08/02 12:11:58+00,Yes,328335,-83.001086,42.348019,331,571," Service Station, Gas Station",48214
-83.23615,42.385923,172258,19841 Schoolcraft,H & B Gas Inc. Citgo Gas station,CITGO GAS STATION,ANNUAL Mercantile Occupancy,2023/08/02 12:00:43+00,Yes,115573,-83.23615,42.385923,332,571," Service Station, Gas Station",48223
-83.185766,42.43118,166186,14204 West Seven Mile,MCDONALD'S #7025,McDonald's,ANNUAL Business Occupancy,2023/08/02 10:51:09+00,Yes,21074,-83.185766,42.43118,333,100, Assembly - Other,48235
-83.17162,42.431505,175444,12730 West Seven Mile,Floral Gardens Florist,,ANNUAL Mercantile Occupancy,2023/08/02 08:42:40+00,Yes,535268,-83.17162,42.431505,334,500," Mercantile, Business - Other",48235
-83.023877,42.434478,173577,19120 Van Dyke,Lighthouse Pipes and Access,19120 Van Dyke,ANNUAL Mercantile Occupancy,2023/08/02 08:25:05+00,Yes,352720,-83.023877,42.434478,335,500," Mercantile, Business - Other",48226
-83.050708,42.378916,175631,2500 East Grand Boulevard,444N,GM ZERO ASSEMBLY PLANT NORTH LOCATION,ANNUAL 302 Site,2023/08/01 17:10:11+00,Yes,254577,-83.050708,42.378916,336,600," Ind., Utility, Defense, Agriculture, Mining - Other",48211
-83.196483,42.339277,175432,6565 Greenfield,A & W DAYCARE,A&W DAYCARE,ANNUAL Child Care Center (Day Care),2023/08/01 16:30:56+00,Yes,215752,-83.196483,42.339277,337,254," Day Care, In Commercial Property",48228
-83.140998,42.43061,172237,18984 (A) Livernois,Metro PCS,Metro PCS,ANNUAL Business Occupancy,2023/08/01 16:18:48+00,Yes,543180,-83.140998,42.43061,338,500," Mercantile, Business - Other",48221
-83.024908,42.444734,175417,20181 Van dyke,Detroit Kutz,Detroit Kutz,ANNUAL Business Occupancy,2023/08/01 16:00:00+00,Yes,268886,-83.024908,42.444734,339,500," Mercantile, Business - Other",48234
-82.950694,42.370264,175411,13200 East Jefferson,O'REILLY AUTO PARTS,O'Reilly Auto Parts,ANNUAL Mercantile Occupancy,2023/08/01 15:38:43+00,Yes,332020,-82.950694,42.370264,340,500," Mercantile, Business - Other",48215
-83.081159,42.433174,172453,2015 East Seven mile,West Indian American Association,West Indian American Association,ANNUAL Assembly Occupancy,2023/08/01 14:03:08+00,Yes,291018,-83.081159,42.433174,341,100, Assembly - Other,48234
-83.025063,42.447891,175415,20525 Van Dyke,Costcut Beauty,Costcut Beauty,ANNUAL Mercantile Occupancy,2023/08/01 13:00:00+00,Yes,353112,-83.025063,42.447891,342,500," Mercantile, Business - Other",48234
-83.196304,42.340809,175430,6755 Greenfield,Global Consultants,Greenfield oaks,ANNUAL Business Occupancy,2023/08/01 11:45:55+00,Yes,349719,-83.196304,42.340809,343,599, Business Office,48228
-83.033856,42.440605,175402,4004 East Outer Drive,GRANDY'S CONEY ISLAND,GRANDY'S CONEY ISLAND,ANNUAL Mercantile Occupancy,2023/08/01 11:00:00+00,Yes,266188,-83.033856,42.440605,344,500," Mercantile, Business - Other",48234
-83.004443,42.44224,175399,19920 hoover,Golden unisex salon,Golden unisex saloon,ANNUAL Business Occupancy,2023/08/01 10:44:58+00,Yes,225615,-83.004443,42.44224,345,557," Personal Service, Including Barber & Beauty Shops",48205
-83.033943,42.440215,175400,19706 Sherwood,DEARBORN SIGNS & AWNING,PARTY CENTER,ANNUAL Mercantile Occupancy,2023/08/01 10:00:00+00,Yes,266182,-83.033943,42.440215,346,UUU, Undetermined,48234
,,175426,6881 GREENFIELD,NICE PRICE EXPRESS INC.,Nice Price,ANNUAL Mercantile Occupancy,2023/08/01 09:45:08+00,Yes,548108,,,347,500," Mercantile, Business - Other",48228
-83.012934,42.419313,170434,11010 East McNichols,Eagles Petroleum Inc/BP Gas,CITGO GAS STATION,ANNUAL Gas Station,2023/08/01 05:00:01+00,Yes,223555,-83.012934,42.419313,348,571," Service Station, Gas Station",48234
-82.999336,42.448658,173636,12344 East Eight Mile,CHEERS,Cheers,ANNUAL Mercantile Occupancy,2023/07/31 20:54:35+00,Yes,161984,-82.999336,42.448658,349,500," Mercantile, Business - Other",48205
-82.988006,42.397972,175393,11585 Harper,M & M LIQUOR STORE,,ANNUAL Mercantile Occupancy,2023/07/31 20:36:23+00,Yes,227000,-82.988006,42.397972,350,500," Mercantile, Business - Other",48213
-82.986834,42.3983,175392,11735 Harper,AJ AUTO SALE,A & J's AUTO SALES,ANNUAL Business Occupancy,2023/07/31 19:43:56+00,Yes,247301,-82.986834,42.3983,351,579," Motor Vehicle or Boat Sales, Services, Repair",48213
-82.983169,42.399564,175390,12105 Harper,DETROIT CUSTOM COLLISION & AUTO SALE,DETROIT CUSTOM COLLISION & AUTO SALE,ANNUAL Business Occupancy,2023/07/31 18:56:09+00,Yes,350882,-82.983169,42.399564,352,579," Motor Vehicle or Boat Sales, Services, Repair",48213
-83.224255,42.40163,154655,18608 Fenkell,Dollar Deal,Grand Land Shopping Center,ANNUAL Mercantile Occupancy,2023/07/31 16:56:58+00,Yes,123090,-83.224255,42.40163,353,500," Mercantile, Business - Other",48223
-83.224255,42.40163,175370,18606 Fenkell,Hook Me Up,,ANNUAL Business Occupancy,2023/07/31 15:55:58+00,Yes,123089,-83.224255,42.40163,354,500," Mercantile, Business - Other",48223
,,175381,6919 Greenfield,H & I Fashion,,ANNUAL Mercantile Occupancy,2023/07/31 15:45:25+00,Yes,548231,,,355,500," Mercantile, Business - Other",48228
,,175379,6921 Greenfield,Boost Mobile,,ANNUAL Mercantile Occupancy,2023/07/31 14:45:21+00,Yes,548232,,,356,500," Mercantile, Business - Other",48209
-83.224251,42.401657,175366,18604 Fenkell,BRAND LIQUIDATION,Grand Land Shopping Center,ANNUAL Mercantile Occupancy,2023/07/31 13:54:05+00,Yes,352576,-83.224251,42.401657,357,500," Mercantile, Business - Other",48223
-83.214512,42.34367,175377,17640 West Warren,April's Kiddie Kingdom,BRIGHT MIND CHILD CARE,ANNUAL Child Care Center (Day Care),2023/07/31 13:30:22+00,Yes,214003,-83.214512,42.34367,358,254," Day Care, In Commercial Property",48228
-82.977282,42.434877,167795,14260 Gratiot,Church's Chicken #974,CHURCH'S CHICKEN,ANNUAL Mercantile Occupancy,2023/07/31 12:54:09+00,Yes,150724,-82.977282,42.434877,359,500," Mercantile, Business - Other",48205
-83.224255,42.40163,141372,18602 Fenkell,Kidz Kingdom,Grand,ANNUAL Child Care Center (Day Care),2023/07/31 12:53:41+00,Yes,123088,-83.224255,42.40163,360,100, Assembly - Other,48223
-83.224255,42.40163,154653,18600 Fenkell,Dollar General #12459,Grand Land Shopping Center,ANNUAL Mercantile Occupancy,2023/07/31 11:52:54+00,Yes,123087,-83.224255,42.40163,361,500," Mercantile, Business - Other",48223
-83.22261,42.401932,175359,18430 Fenkell,RITE AID #4512,Rite Aid,ANNUAL Mercantile Occupancy,2023/07/31 10:51:03+00,Yes,352512,-83.22261,42.401932,362,500," Mercantile, Business - Other",48223
-83.054442,42.333668,175529,1701 Cass,Dagwoods,,ANNUAL Business Occupancy,2023/07/31 10:49:38+00,Yes,23951,-83.054442,42.333668,363,500," Mercantile, Business - Other",48226
-82.992498,42.448909,173641,12912 East Eight Mile,Vesprini CHIROPRACTIC,Vesprini Chiropractic,ANNUAL Business Occupancy,2023/07/31 10:15:44+00,Yes,161899,-82.992498,42.448909,364,341," Clinic, Clinic-type Infirmary",48205
-83.126569,42.315279,175318,2565 Central,"I/Q LIFE SAFETY SYSTEMS, INC.",Central Tower,ANNUAL High Rise,2023/07/29 11:04:04+00,Yes,39394,-83.126569,42.315279,365,UUU, Undetermined,48209
-83.108633,42.423468,175329,17950 Woodward,"Vital Health Management, LLC","Vital Health Management, LLC",ANNUAL Business Occupancy,2023/07/28 17:00:40+00,Yes,323087,-83.108633,42.423468,366,341," Clinic, Clinic-type Infirmary",48203
-83.210792,42.343666,175297,16900 West Warren,Royal Furniture & Gifts,Royal Furniture,ANNUAL Mercantile Occupancy,2023/07/28 16:00:50+00,Yes,352185,-83.210792,42.343666,367,500," Mercantile, Business - Other",48228
-83.246155,42.386361,175299,20840 Schoolcraft,Jess's Auto Service,,ANNUAL Repair Garage,2023/07/28 15:54:44+00,Yes,143801,-83.246155,42.386361,368,579," Motor Vehicle or Boat Sales, Services, Repair",48223
-83.222094,42.358068,175294,18540 Joy,Joy Auto Center,,ANNUAL Repair Garage,2023/07/28 14:30:58+00,Yes,215513,-83.222094,42.358068,369,579," Motor Vehicle or Boat Sales, Services, Repair",48228
-83.205202,42.358296,175293,16238 Joy,BETHELHEM TEMPLE PENTECOSTAL CHURCH,,ANNUAL Assembly Occupancy,2023/07/28 13:30:28+00,Yes,216131,-83.205202,42.358296,370,100, Assembly - Other,48228
-83.110279,42.425731,175328,18222 Woodward,COMERICA BANK,,ANNUAL Business Occupancy,2023/07/28 13:00:25+00,Yes,323059,-83.110279,42.425731,371,UUU, Undetermined,48203
-83.245907,42.386402,163218,20810 SCHOOLCRAFT,Hashim Auto Center,,ANNUAL Repair Garage,2023/07/28 12:53:54+00,Yes,353145,-83.245907,42.386402,372,579," Motor Vehicle or Boat Sales, Services, Repair",48223
,,175308,18660 Ford,Dorsey School,Dorsey School,ANNUAL Business Occupancy,2023/07/28 12:19:42+00,Yes,,,,373,500," Mercantile, Business - Other",48228
-83.108467,42.42303,175327,17900 Woodward,Good Care Quick Lube & Service Center,,ANNUAL Repair Garage,2023/07/28 12:00:05+00,Yes,352406,-83.108467,42.42303,374,500," Mercantile, Business - Other",48203
-83.23741,42.386583,153584,20040 Schoolcraft,Expert Auto Care,Expert Auto Care,ANNUAL Repair Garage,2023/07/28 11:52:42+00,Yes,538984,-83.23741,42.386583,375,579," Motor Vehicle or Boat Sales, Services, Repair",48223
-83.106788,42.420806,175326,17626 Woodward,WOODWARD COIN LAUNDRY,Woodward Coin Laundry,ANNUAL Business Occupancy,2023/07/28 11:15:17+00,Yes,323178,-83.106788,42.420806,376,564," Laundry, Dry Cleaning",48203
-83.237569,42.38595,175300,20033 Schoolcraft,Fast Oil & Lube,,ANNUAL Repair Garage,2023/07/28 10:51:17+00,Yes,436879,-83.237569,42.38595,377,579," Motor Vehicle or Boat Sales, Services, Repair",48223
-83.207033,42.430097,175325,16133 West Seven Mile,Qight Tight,,ANNUAL Business Occupancy,2023/07/28 10:30:53+00,Yes,68649,-83.207033,42.430097,378,500," Mercantile, Business - Other",48235
-83.219691,42.329429,167597,18430 Ford,WENDY'S #1229,Wendy's #1229,ANNUAL Business Occupancy,2023/07/28 10:08:18+00,Yes,215163,-83.219691,42.329429,379,500," Mercantile, Business - Other",48228
-83.202572,42.430621,175324,15716 West Seven Mile,Top Shelf Barber and Beauty,Top Shelf Barber and Beauty Supply,ANNUAL Business Occupancy,2023/07/28 10:00:30+00,Yes,64502,-83.202572,42.430621,380,500," Mercantile, Business - Other",48235
-82.913446,42.411802,175292,18550 East Warren,Taco Bell,,ANNUAL Mercantile Occupancy,2023/07/28 09:00:58+00,Yes,352565,-82.913446,42.411802,381,500," Mercantile, Business - Other",48236
-83.133143,42.416977,173263,3205 West McNichols,Stop and Go Liquor,Stop and Go Liquor,ANNUAL Mercantile Occupancy,2023/07/27 19:31:26+00,Yes,7339,-83.133143,42.416977,382,500," Mercantile, Business - Other",48221
-83.130033,42.319516,175316,3005 Central,HERMAN BROTHERS SALES CORP,3005 Central,ANNUAL Business Occupancy,2023/07/27 16:58:07+00,Yes,348928,-83.130033,42.319516,383,579," Motor Vehicle or Boat Sales, Services, Repair",48209
-83.232106,42.380961,175271,12727 Westwood,ALDOA CO,ALDOA COMPANY ADVANCE URETHANES INC,ANNUAL 302 Site,2023/07/27 16:54:03+00,Yes,115577,-83.232106,42.380961,384,600," Ind., Utility, Defense, Agriculture, Mining - Other",48223
-83.205965,42.343922,175286,16400 West Warren,FORD MEMORIAL UNITED METHODIST CHURCH,,ANNUAL Child Care Center (Day Care),2023/07/27 16:45:10+00,Yes,215823,-83.205965,42.343922,385,UUU, Undetermined,48228
-83.129349,42.319975,175315,3022 Central,CENTRAL AVENUE AUTO PARTS INC,CENTRAL AVENUE AUTO PARTS INC,ANNUAL Business Occupancy,2023/07/27 16:42:43+00,Yes,39731,-83.129349,42.319975,386,500," Mercantile, Business - Other",48209
-83.231174,42.383685,157902,19303 West Davison,Detroit Wrecker Sales,Detroit Wrecker Sales,ANNUAL Business Occupancy,2023/07/27 15:53:57+00,Yes,114585,-83.231174,42.383685,387,700," Manufacturing, Processing",48223
,,175239,500 Renaissance Center,BAHN THAI EXPRESS,Renaissance Center Tower 500,ANNUAL Child Care Center (Day Care),2023/07/27 15:34:21+00,Yes,,,,388,UUU, Undetermined,48243
-83.214127,42.343656,175284,17610 West Warren,Creative Carpentry,Creative Carpentry Design,ANNUAL Business Occupancy,2023/07/27 15:00:05+00,Yes,352368,-83.214127,42.343656,389,500," Mercantile, Business - Other",48228
-83.232438,42.382611,157907,12871 Westwood,State Petroleum 2,,ANNUAL Business Occupancy,2023/07/27 14:52:31+00,Yes,537219,-83.232438,42.382611,390,800, Storage - Other,48223
-83.192334,42.430408,164704,14777 West Seven Mile,Hollywood Beauty Supply,Hollywood Beauty Supply,ANNUAL Business Occupancy,2023/07/27 14:45:58+00,Yes,68634,-83.192334,42.430408,391,500," Mercantile, Business - Other",48235
-83.21288,42.34364,175283,17010 West Warren,Amar Liquidation,,ANNUAL Mercantile Occupancy,2023/07/27 14:15:34+00,Yes,214009,-83.21288,42.34364,392,500," Mercantile, Business - Other",48228
-83.19146,42.430417,175249,14701 West Seven Mile,Omni Liquor Store,OMNI LIQUOR,ANNUAL Mercantile Occupancy,2023/07/27 14:15:07+00,Yes,65665,-83.19146,42.430417,393,500," Mercantile, Business - Other",48235
-83.231202,42.38329,159298,12910 Westwood,Super Stone,,ANNUAL Business Occupancy,2023/07/27 13:55:47+00,Yes,114425,-83.231202,42.38329,394,700," Manufacturing, Processing",48223
-83.189351,42.431013,175248,14500 West Seven Mile,Exotic Car Company,EXOTIC CAR COMPANY,ANNUAL Repair Garage,2023/07/27 13:30:00+00,Yes,65906,-83.189351,42.431013,395,579," Motor Vehicle or Boat Sales, Services, Repair",48235
-83.053147,42.433645,170586,5041 East Seven Mile,SOLAIMAN MINI MART/VALERO GAS STATION,SEVEN MILE MINI MART (FAST STOP GAS),ANNUAL Gas Station,2023/07/27 12:58:58+00,Yes,294242,-83.053147,42.433645,396,571," Service Station, Gas Station",48234
-83.258532,42.417273,173763,22100 Grand River,LAHSER TIRE INC.,LASHER TIRE,ANNUAL Repair Garage,2023/07/27 12:51:23+00,Yes,133004,-83.258532,42.417273,397,579," Motor Vehicle or Boat Sales, Services, Repair",48219
,,175282,17006 West Warren,Maiwen International Market Place,Mccormick,ANNUAL Mercantile Occupancy,2023/07/27 12:45:40+00,Yes,,,,398,500," Mercantile, Business - Other",48228
-83.188415,42.431061,175247,14420 West Seven Mile,CAPTAIN JAY'S FISH & CHICKEN #119,Captain Jay's Fish & Chicken,ANNUAL Mercantile Occupancy,2023/07/27 12:45:05+00,Yes,351497,-83.188415,42.431061,399,161, Restaurant or Cafeteria,48235
-83.212766,42.343635,175281,17000 West Warren,Jama African Hairbraiding,African Hair Braiding,ANNUAL Business Occupancy,2023/07/27 11:45:08+00,Yes,215445,-83.212766,42.343635,400,557," Personal Service, Including Barber & Beauty Shops",48228
-83.21186,42.343641,175280,16964 West Warren,DISCOVERY MARKETING,Discovery Printing & Signs,ANNUAL Business Occupancy,2023/07/27 10:45:45+00,Yes,215780,-83.21186,42.343641,401,599, Business Office,48228
-83.206671,42.430632,175244,16100 West Seven Mile,AMERICANS AUTO GROUP,,ANNUAL Repair Garage,2023/07/27 10:00:00+00,Yes,64755,-83.206671,42.430632,402,579," Motor Vehicle or Boat Sales, Services, Repair",48235
-83.199201,42.401746,170872,15510 Fenkell,Fenkell gas Mart Inc.,MOBIL GAS STATION,ANNUAL Gas Station,2023/07/27 09:30:46+00,Yes,145998,-83.199201,42.401746,403,571," Service Station, Gas Station",48227
-82.98429,42.449105,156306,13660 East Eight Mile,ACE APPLIANCE,,ANNUAL Mercantile Occupancy,2023/07/27 06:53:43+00,Yes,221813,-82.98429,42.449105,404,500," Mercantile, Business - Other",48205
-82.995164,42.448845,155182,12700 East Eight Mile,"BARGAIN FURNITURE, LLC",BARGAIN FURNITURE,ANNUAL Mercantile Occupancy,2023/07/27 06:51:35+00,Yes,181310,-82.995164,42.448845,405,500," Mercantile, Business - Other",48205
-83.227345,42.383491,156593,12911 Artesian,BUMPERS AMERICA,BUMPERS AMERICA,ANNUAL Industrial Occupancy,2023/07/27 06:47:36+00,Yes,114476,-83.227345,42.383491,406,700," Manufacturing, Processing",48223
-83.227475,42.383107,156594,12891 Artesian,JOHN PANE,JOHN PANE,ANNUAL Industrial Occupancy,2023/07/27 06:46:32+00,Yes,115580,-83.227475,42.383107,407,700," Manufacturing, Processing",48223
-83.215244,42.343749,158261,17720 West Warren,SUBWAY RESTAURANT,SHELL GAS STATION,ANNUAL Business Occupancy,2023/07/26 17:43:31+00,Yes,215446,-83.215244,42.343749,408,500," Mercantile, Business - Other",48228
,,173645,4505 Oakman Boulevard,Uncle J's Joints,DHS,ANNUAL Business Occupancy,2023/07/26 17:30:39+00,Yes,,,,409,600," Ind., Utility, Defense, Agriculture, Mining - Other",48204
-83.01239,42.376387,170389,5002 Van Dyke,ALAMEEN MINI MART/ CITGO,CITGO GAS STATION,ANNUAL Gas Station,2023/07/26 17:01:44+00,Yes,15181,-83.01239,42.376387,410,571," Service Station, Gas Station",48213
-83.007141,42.389688,170142,9240 Gratiot,A-2 EXPRESS / CITGO GAS STATION,CITGO GAS STATION,ANNUAL Gas Station,2023/07/26 16:58:27+00,Yes,80105,-83.007141,42.389688,411,571," Service Station, Gas Station",48213
-83.230767,42.342974,175274,19411 West Warren,Auto National Financial,Rhino Auto Sales Inc.,ANNUAL Business Occupancy,2023/07/26 16:56:29+00,Yes,215388,-83.230767,42.342974,412,500," Mercantile, Business - Other",48228
-83.198914,42.391865,155400,14309 Greenfield,Danny's Nail Spa,,ANNUAL Business Occupancy,2023/07/26 16:34:21+00,Yes,351446,-83.198914,42.391865,413,500," Mercantile, Business - Other",48227
-83.21186,42.343641,175198,16960 West Warren,Hookah Heads,Hookah Heads,ANNUAL Mercantile Occupancy,2023/07/26 16:30:32+00,Yes,215779,-83.21186,42.343641,414,500," Mercantile, Business - Other",48228
-83.095766,42.43211,168103,800 East Seven Mile,I-75 PETROLEUM INC. BP GAS STATION,I-75 PETROLEUM INC. BP GAS,ANNUAL Gas Station,2023/07/26 15:57:02+00,Yes,202706,-83.095766,42.43211,415,571," Service Station, Gas Station",48203
-83.202627,42.357332,170397,15875 Joy,SECURITY CONSULTING SERVICE,The Village of St Martha's,ANNUAL Residential,2023/07/26 15:45:54+00,Yes,213956,-83.202627,42.357332,416,UUU, Undetermined,48228
-83.10454,42.367758,170660,8406 Linwood,Sunoco Gas Station,CITGO GAS STATION,ANNUAL Gas Station,2023/07/26 15:17:05+00,Yes,350157,-83.10454,42.367758,417,571," Service Station, Gas Station",48206
,,175238,600 Renaissance Center,Schambaugh & Son LP,,ANNUAL High Rise,2023/07/26 15:11:22+00,Yes,,,,418,000, Property Use - Other,48226
-83.215642,42.35826,170296,17690 Joy,"GAS & MORE 2, INC  SHELL GAS STATION",SHELL GAS STATION,ANNUAL Gas Station,2023/07/26 15:00:46+00,Yes,538436,-83.215642,42.35826,419,571," Service Station, Gas Station",48228
,,169333,18640 Joy,MOCK'S AUTO SERVICES INC.,Mock's Auto III,ANNUAL Repair Garage,2023/07/26 14:00:56+00,Yes,548103,,,420,579," Motor Vehicle or Boat Sales, Services, Repair",48228
-82.991683,42.434446,173585,12930 East Seven Mile,Super Clean Coin Laundry,Super Clean Coin Laundry,ANNUAL Business Occupancy,2023/07/26 14:00:00+00,Yes,221630,-82.991683,42.434446,421,564," Laundry, Dry Cleaning",48205
-83.225569,42.358002,169373,18900 Joy,Human Service Center,,ANNUAL Business Occupancy,2023/07/26 13:30:30+00,Yes,352634,-83.225569,42.358002,422,599, Business Office,48228
-83.233127,42.357948,169666,19540 Joy,THREE BROTHERS PARTY STORE,Three Brothers Party Store,ANNUAL Mercantile Occupancy,2023/07/26 12:00:53+00,Yes,215507,-83.233127,42.357948,423,500," Mercantile, Business - Other",48228
-83.17193,42.445013,172228,12711 West Eight Mile,Meyers Fuel Mart / Exxon,Exxon,ANNUAL Gas Station,2023/07/26 11:39:04+00,Yes,19169,-83.17193,42.445013,424,571," Service Station, Gas Station",48235
-83.233346,42.357339,167621,19545 Joy,Nick's Collision,Joy Rd. Collision,ANNUAL Repair Garage,2023/07/26 11:30:35+00,Yes,352879,-83.233346,42.357339,425,579," Motor Vehicle or Boat Sales, Services, Repair",48228
-82.977402,42.435211,175216,14300 Gratiot,HOOKAH TOWER 1,V.I.P.CONEY ISLAND,ANNUAL Mercantile Occupancy,2023/07/26 10:39:44+00,Yes,351426,-82.977402,42.435211,426,500," Mercantile, Business - Other",48205
-82.977425,42.435177,175215,14296 Gratiot,FOOT LOCKER #08523,NORTHEAST VILLAGE SHOPPING CENTER,ANNUAL Mercantile Occupancy,2023/07/26 10:35:42+00,Yes,351425,-82.977425,42.435177,427,500," Mercantile, Business - Other",48205
-83.21972,42.415848,171993,18120 West McNichols,Mason's Mobil Inc.,MOBIL Gas Station,ANNUAL Gas Station,2023/07/26 10:30:15+00,Yes,100691,-83.21972,42.415848,428,571," Service Station, Gas Station",48219
,,175210,13624 Gratiot,COACH PARTY STORE,Coach Party Store,ANNUAL Mercantile Occupancy,2023/07/26 10:24:48+00,Yes,548053,,,429,500," Mercantile, Business - Other",48205
-82.982821,42.426589,175209,13644 Gratiot,Metro Pcs,Coach Party Store,ANNUAL Mercantile Occupancy,2023/07/26 10:14:15+00,Yes,399157,-82.982821,42.426589,430,500," Mercantile, Business - Other",48205
-83.212287,42.343726,175160,16980 West Warren,WEST WARREN AUTO REPAIR LLC,WEST WARREN AUTO REPAIR,ANNUAL Repair Garage,2023/07/25 17:15:37+00,Yes,541713,-83.212287,42.343726,431,579," Motor Vehicle or Boat Sales, Services, Repair",48228
-83.209866,42.343701,175158,16826 West Warren,MR. ME APPLIANCES,,ANNUAL Business Occupancy,2023/07/25 16:30:52+00,Yes,214010,-83.209866,42.343701,432,500," Mercantile, Business - Other",48228
-83.141139,42.292292,175168,10410 West Fort,HOUSE OF HARD TOPS,HOUSE OF HARD TOPS,ANNUAL Business Occupancy,2023/07/25 16:21:19+00,Yes,350611,-83.141139,42.292292,433,579," Motor Vehicle or Boat Sales, Services, Repair",48209
-83.209479,42.343736,175157,16800 West Warren,Soboh Insurance,,ANNUAL Business Occupancy,2023/07/25 16:00:59+00,Yes,352146,-83.209479,42.343736,434,500," Mercantile, Business - Other",48228
-83.165194,42.395872,167745,10500 Lyndon,CITY OF DETROIT-PARKS & RECREATION DEPT-BUTZEL RECREATION CENTER,BUTZEL RECREATION CENTER,ANNUAL Assembly Occupancy,2023/07/25 16:00:00+00,Yes,350623,-83.165194,42.395872,435,100, Assembly - Other,48238
-83.232124,42.381279,175174,19411 Glendale,A & B Transmission,A & B Transmission,ANNUAL Repair Garage,2023/07/25 15:56:02+00,Yes,113543,-83.232124,42.381279,436,500," Mercantile, Business - Other",48223
-83.256604,42.410446,175182,16630 Lahser,City of Detroit Parks & Recreation dept. - Crowell Recreation Center,,ANNUAL Assembly Occupancy,2023/07/25 15:15:45+00,Yes,126668,-83.256604,42.410446,437,100, Assembly - Other,48219
-83.208237,42.343765,175156,16600 West Warren,DUZAK FUNERAL HOME INC,,ANNUAL Business Occupancy,2023/07/25 15:00:02+00,Yes,352110,-83.208237,42.343765,438,134, Funeral Parlor,48220
-83.236352,42.385712,175173,13620 Evergreen,A & B Transmissions,A & B Transmissions,ANNUAL Repair Garage,2023/07/25 14:55:27+00,Yes,115377,-83.236352,42.385712,439,579," Motor Vehicle or Boat Sales, Services, Repair",48223
-83.04877,42.336529,175236,1526 Broadway,DETROIT OPERA HOUSE - PARKING LOT,MICHIGAN OPERA THEATRE,ANNUAL High Rise,2023/07/25 14:36:09+00,Yes,18451,-83.04877,42.336529,440,900, Outside or Special Property - Other,48226
-83.207625,42.343787,175155,16520 West Warren,BHP FAIRLINE FOOD CENTER,BPH Fairlane Food center,ANNUAL Mercantile Occupancy,2023/07/25 14:00:11+00,Yes,215814,-83.207625,42.343787,441,500," Mercantile, Business - Other",48228
-83.231332,42.380573,175172,12680 Westwood,Storage garage #2,ABC student Transportation,ANNUAL Business Occupancy,2023/07/25 13:54:50+00,Yes,112953,-83.231332,42.380573,442,579," Motor Vehicle or Boat Sales, Services, Repair",48223
-83.113419,42.430333,175181,18850 Woodward,LaRenaissance Motel Inc,LaRENAISSANCE Motel Inc.,ANNUAL Residential,2023/07/25 13:00:00+00,Yes,60341,-83.113419,42.430333,443,449," Hotel/motel, Commercial",48203
-82.986588,42.421268,175207,13002 Gratiot,L.A. INSURANCE #5,L.A. Plaza,ANNUAL Business Occupancy,2023/07/25 12:19:37+00,Yes,351101,-82.986588,42.421268,444,500," Mercantile, Business - Other",48205
,,175206,13014 Gratiot,Dank Godz,L. A. Plaza,ANNUAL Mercantile Occupancy,2023/07/25 12:16:18+00,Yes,,,,445,341," Clinic, Clinic-type Infirmary",48205
-83.203321,42.343837,175154,16138 West Warren,Household Goods and Exports,DOLLAR PLUS,ANNUAL Mercantile Occupancy,2023/07/25 11:45:09+00,Yes,352001,-83.203321,42.343837,446,500," Mercantile, Business - Other",48228
-82.98919,42.416872,175204,12376 Gratiot,KAL  TIRES,Kal's Tire,ANNUAL Repair Garage,2023/07/25 11:36:58+00,Yes,350944,-82.98919,42.416872,447,579," Motor Vehicle or Boat Sales, Services, Repair",48205
-82.990173,42.415399,175203,12266 Gratiot,Rigley's Pharmacy,Rigley's Pharmacy,ANNUAL Mercantile Occupancy,2023/07/25 11:30:45+00,Yes,247265,-82.990173,42.415399,448,500," Mercantile, Business - Other",48205
-83.202335,42.343854,175152,16050 West Warren,Golden Pointe Awning & Sign,Golden Pointe Awning,ANNUAL Business Occupancy,2023/07/25 10:30:19+00,Yes,351970,-83.202335,42.343854,449,700," Manufacturing, Processing",48228
-83.061616,42.352399,173532,4265 Woodward,HOPCAT BAR AND RESTAURANT,Hopcat Bar & Restaurant,ANNUAL Mercantile Occupancy,2023/07/25 10:05:41+00,Yes,252213,-83.061616,42.352399,450,162, Bar or Nightclub,48201
-83.169478,42.423055,167746,18100 Meyers,ROAD READY DRIVING SCHOOL,Northwest Activities Center,ANNUAL Assembly Occupancy,2023/07/25 10:00:00+00,Yes,5723,-83.169478,42.423055,451,500," Mercantile, Business - Other",48235
-83.031829,42.3336,173430,1404 East Jefferson,AMORI'S LIQUOR MARKETPLACE/ALABAMA CHICKEN,AMORI'S LIQUOR MARKETPLACE,ANNUAL Mercantile Occupancy,2023/07/25 09:58:26+00,Yes,239212,-83.031829,42.3336,452,500," Mercantile, Business - Other",48207
-83.1339,42.410182,173230,3300 Puritan,AL'S BARBER SHOP,,ANNUAL Business Occupancy,2023/07/25 09:32:10+00,Yes,12818,-83.1339,42.410182,453,557," Personal Service, Including Barber & Beauty Shops",48238
-83.201836,42.343837,175151,16032 West Warren,Rafedan Shish Kabob Restaurant,Rafidian Shish Kabob,ANNUAL Mercantile Occupancy,2023/07/25 09:30:36+00,Yes,215816,-83.201836,42.343837,454,100, Assembly - Other,48228
-83.144642,42.289023,170357,270 South Fort,"FORT CITGO, INC",Citgo,ANNUAL Gas Station,2023/07/25 08:41:02+00,Yes,346850,-83.144642,42.289023,455,571," Service Station, Gas Station",48217
-82.969059,42.447354,175141,15270 Gratiot,Rama African Hair Braiding.,15270 Gratiot,ANNUAL Mercantile Occupancy,2023/07/24 15:13:59+00,Yes,98895,-82.969059,42.447354,456,500," Mercantile, Business - Other",48205
-82.942607,42.449931,175132,17020 East Eight Mile,BIG THREE AUTO SALES,BIG THREE AUTO SALES,ANNUAL Business Occupancy,2023/07/24 11:07:05+00,Yes,138368,-82.942607,42.449931,457,579," Motor Vehicle or Boat Sales, Services, Repair",48205
-83.025055,42.434093,175130,7715 East Seven Mile,"In & Out 422 LLC, DBA, Detroit Hookah",,ANNUAL Mercantile Occupancy,2023/07/24 10:00:00+00,Yes,349948,-83.025055,42.434093,458,500," Mercantile, Business - Other",48234
-83.037516,42.344652,175277,1490 Gratiot,Flowers for Dreams,,ANNUAL Mercantile Occupancy,2023/07/22 09:05:04+00,Yes,347531,-83.037516,42.344652,459,500," Mercantile, Business - Other",48207
-83.221157,42.372441,174101,18426 Plymouth,STARTER'S BAR & GRILL,Starter's Bar & Grill,ANNUAL Business Occupancy,2023/07/21 23:38:54+00,Yes,215603,-83.221157,42.372441,460,100, Assembly - Other,48228
-83.12568,42.309643,173494,2010 Springwells,FAMILY TREAT,Family Treat,ANNUAL Mercantile Occupancy,2023/07/21 12:28:47+00,Yes,52857,-83.12568,42.309643,461,500," Mercantile, Business - Other",48209
-83.01425,42.354343,174073,2189 Beaufait,Michigan Humane,,ANNUAL Storage Occupancy,2023/07/20 23:25:35+00,Yes,329191,-83.01425,42.354343,462,800, Storage - Other,48207
-83.257767,42.442818,174067,21737 West Eight Mile,Fidmarc Express Pharmacy,,ANNUAL Business Occupancy,2023/07/20 20:48:13+00,Yes,353205,-83.257767,42.442818,463,599, Business Office,48219
-83.246772,42.400719,175185,20830 Fenkell,True Value Dollar Store Variety,20830 Fenkell,ANNUAL Business Occupancy,2023/07/20 20:28:40+00,Yes,372139,-83.246772,42.400719,464,500," Mercantile, Business - Other",48223
-83.228843,42.357398,167785,19201 Joy,WEST END PARTY STORE,West End Party Store,ANNUAL Mercantile Occupancy,2023/07/20 18:00:09+00,Yes,213882,-83.228843,42.357398,465,500," Mercantile, Business - Other",48228
-83.241599,42.357784,166488,20540 Joy,A & J Auto Tech,A&J Auto Repair,ANNUAL Repair Garage,2023/07/20 17:30:08+00,Yes,215499,-83.241599,42.357784,466,579," Motor Vehicle or Boat Sales, Services, Repair",48228
-83.029461,42.416993,175140,13650 Helen,CADILLAC OIL CO,Cadillac Oil Bldg.,ANNUAL 302 Site,2023/07/20 17:19:36+00,Yes,537484,-83.029461,42.416993,467,700," Manufacturing, Processing",48212
-83.242939,42.357093,166841,20651 Joy,Atlas Auto Mart,Liberty Auto Group,ANNUAL Business Occupancy,2023/07/20 17:00:46+00,Yes,215475,-83.242939,42.357093,468,599, Business Office,48228
-83.243932,42.357059,166653,20725 Joy,ALEX AUTO,A & J Auto Clinic,ANNUAL Repair Garage,2023/07/20 16:30:35+00,Yes,215473,-83.243932,42.357059,469,579," Motor Vehicle or Boat Sales, Services, Repair",48228
-83.178207,42.387686,175125,13555 Schoolcraft,ACTION MARKET 2,,ANNUAL Business Occupancy,2023/07/20 16:18:55+00,Yes,215653,-83.178207,42.387686,470,500," Mercantile, Business - Other",48227
-83.220278,42.415724,165312,18200 West McNichols,Island Spice Caribbean Restaurant,Island Spice Caribbean Restaurant,ANNUAL Mercantile Occupancy,2023/07/20 16:00:22+00,Yes,103835,-83.220278,42.415724,471,500," Mercantile, Business - Other",48219
-83.066823,42.362102,170277,5564 Woodward,BEST BUY SERVICE INC/MARATHON GAS,MARATHON GAS STATION,ANNUAL Gas Station,2023/07/20 15:58:40+00,Yes,266420,-83.066823,42.362102,472,571," Service Station, Gas Station",48202
-83.216599,42.419453,173661,7940 Outer Drive,INSYNC,,ANNUAL Assembly Occupancy,2023/07/20 15:05:02+00,Yes,350020,-83.216599,42.419453,473,100, Assembly - Other,48235
-83.160175,42.406616,172056,15733 Wyoming,QUALITY AUTO SALES & REPAIR LLC,Quality Auto Sales & Repair LLC,ANNUAL Repair Garage,2023/07/20 14:50:19+00,Yes,538074,-83.160175,42.406616,474,579," Motor Vehicle or Boat Sales, Services, Repair",48238
-83.205182,42.343818,174062,16322 West Warren,Papaya Fruit Market,Papaya Fruit Market,ANNUAL Mercantile Occupancy,2023/07/20 14:45:22+00,Yes,252143,-83.205182,42.343818,475,500," Mercantile, Business - Other",48228
-83.015834,42.35527,174093,6408 East Vernor,Strictly Transmission,,ANNUAL Repair Garage,2023/07/20 14:25:11+00,Yes,330236,-83.015834,42.35527,476,579," Motor Vehicle or Boat Sales, Services, Repair",48226
-83.013144,42.355115,174078,2221 Bellevue,Premier Group Associates,,ANNUAL Industrial Occupancy,2023/07/20 13:50:56+00,Yes,395674,-83.013144,42.355115,477,600," Ind., Utility, Defense, Agriculture, Mining - Other",48207
-83.204256,42.343909,174060,16238 West Warren,West Park Urgent Care,,ANNUAL Business Occupancy,2023/07/20 13:00:41+00,Yes,352043,-83.204256,42.343909,478,599, Business Office,48228
-83.204002,42.343704,174057,16226 West Warren,Cricket Wireless #107,Cricket Wireless,ANNUAL Mercantile Occupancy,2023/07/20 11:30:46+00,Yes,352036,-83.204002,42.343704,479,500," Mercantile, Business - Other",48228
-83.201214,42.38668,175126,15735 Schoolcraft,SPECIAL WAY FOODS,,ANNUAL Mercantile Occupancy,2023/07/20 11:26:43+00,Yes,137169,-83.201214,42.38668,480,UUU, Undetermined,48227
,,172329,19403 Chicago,Samaritan Homes Inc,,ANNUAL Shelter,2023/07/20 11:12:32+00,Yes,,,,481,400, Residential - Other,48228
-83.204148,42.343908,174056,16200 West Warren,Victory Market,Victory Market,ANNUAL Mercantile Occupancy,2023/07/20 10:30:44+00,Yes,215819,-83.204148,42.343908,482,500," Mercantile, Business - Other",48228
-83.24702,42.411972,174065,20815 Grand River,V.I.P.. Oil Exchange,V.I.P.. Oil Exchange,ANNUAL Industrial Occupancy,2023/07/20 09:18:06+00,Yes,119100,-83.24702,42.411972,483,500," Mercantile, Business - Other",48219
-83.217533,42.401488,173095,17750 Fenkell,"KFC/FQSR, LLC dba KBP Foods",KFC,ANNUAL Business Occupancy,2023/07/19 18:13:02+00,Yes,131946,-83.217533,42.401488,484,500," Mercantile, Business - Other",48227
-83.201374,42.401644,173093,15660 Fenkell,Festival Party Store,,ANNUAL Business Occupancy,2023/07/19 18:12:46+00,Yes,145997,-83.201374,42.401644,485,500," Mercantile, Business - Other",48227
-83.258314,42.400542,174033,22100 Fenkell,Jackson Demolition,Jackson Demolition,ANNUAL Business Occupancy,2023/07/19 17:57:30+00,Yes,539182,-83.258314,42.400542,486,UUU, Undetermined,48223
-83.257508,42.342005,166911,22300 West Warren,Tanweer Hussain  (CPA),,ANNUAL Business Occupancy,2023/07/19 17:15:34+00,Yes,215376,-83.257508,42.342005,487,599, Business Office,48239
-82.989438,42.397762,170670,9000 Conner,STAR BRITE CAR WASH,Sams mini mart six Inc. ( CONNER AUTO REPAIR GARAGE),ANNUAL Gas Station,2023/07/19 17:00:05+00,Yes,226991,-82.989438,42.397762,488,600," Ind., Utility, Defense, Agriculture, Mining - Other",48213
-83.213691,42.399171,172638,17420 Grand River,Wendy's,,ANNUAL Mercantile Occupancy,2023/07/19 16:56:14+00,Yes,123686,-83.213691,42.399171,489,100, Assembly - Other,48227
-82.997374,42.3826,170370,9949 East Warren,W & H and more Inc.,SUNOCO,ANNUAL Gas Station,2023/07/19 16:38:10+00,Yes,301316,-82.997374,42.3826,490,571," Service Station, Gas Station",48214
-83.212008,42.365388,173226,16900 West Chicago,SHEKINAH TABERNACLE GOSPEL CHURCH,,ANNUAL Assembly Occupancy,2023/07/19 16:30:45+00,Yes,216261,-83.212008,42.365388,491,100, Assembly - Other,48228
-82.954806,42.449886,174021,16068 East Eight Mile,EASTLAND FAMILY DENTISTRY,Eastland Family Dentistry,ANNUAL Business Occupancy,2023/07/19 16:26:46+00,Yes,138989,-82.954806,42.449886,492,341," Clinic, Clinic-type Infirmary",48205
-83.025043,42.44636,173983,20411 Van Dyke,42nd Street Events,42 nd Street,ANNUAL Business Occupancy,2023/07/19 16:03:26+00,Yes,268888,-83.025043,42.44636,493,142, Clubhouse,48234
-83.006711,42.367118,170668,7961 Mack,MACK & VAN DYKE MINI MART/SHELL GAS,MACK & VAN DYKE MINI MART,ANNUAL Gas Station,2023/07/19 16:00:36+00,Yes,337285,-83.006711,42.367118,494,571," Service Station, Gas Station",48214
-83.15727,42.352337,165629,8916 Tireman,FAMILY DOLLAR #31825,Family Dollar,ANNUAL Mercantile Occupancy,2023/07/19 16:00:12+00,Yes,350314,-83.15727,42.352337,495,500," Mercantile, Business - Other",48204
